country_code,country_code3,country,city,city_ascii,admin_name,lat,lon,population,city_rank_in_country,is_capital,capital_type,location,source_dataset,source_url
AF,AFG,Afghanistan,Kabul,Kabul,Kabul,34.52813,69.17233,3678034,1,1,country,"34.52813,69.17233",SimpleMaps worldcities snapshot,https://simplemaps.com/data/world-cities
AF,AFG,Afghanistan,Kandahar,Kandahar,Kandahar,31.61332,65.71013,491500,2,0,,"31.61332,65.71013",SimpleMaps worldcities snapshot,https://simplemaps.com/data/world-cities
AF,AFG,Afghanistan,Herat,Herat,Herat,34.34817,62.19967,436300,3,0,,"34.34817,62.19967",SimpleMaps worldcities snapshot,https://simplemaps.com/data/world-cities
AF,AFG,Afghanistan,Mazar-e Sharif,Mazar-e Sharif,Balkh,36.70904,67.11087,427600,4,0,,"36.70904,67.11087",SimpleMaps worldcities snapshot,https://simplemaps.com/data/world-cities
AF,AFG,Afghanistan,Kunduz,Kunduz,Kunduz,36.72895,68.857,259809,5,0,,"36.72895,68.857",SimpleMaps worldcities snapshot,https://simplemaps.com/data/world-cities
AX,ALA,Aland Islands,Mariehamn,Mariehamn,211,60.09726,19.93481,10682,1,1,country,"60.09726,19.93481",GeoNames cities15000,https://www.geonames.org/
AL,ALB,Albania,Tirana,Tirana,Tirane,41.32744,19.81866,418495,1,1,country,"41.32744,19.81866",SimpleMaps worldcities snapshot,https://simplemaps.com/data/world-cities
AL,ALB,Albania,Durres,Durres,Durres,41.32355,19.45469,142432,2,0,,"41.32355,19.45469",SimpleMaps worldcities snapshot,https://simplemaps.com/data/world-cities
AL,ALB,Albania,Vlore,Vlore,Vlore,40.4696,19.48379,130827,3,0,,"40.4696,19.48379",SimpleMaps worldcities snapshot,https://simplemaps.com/data/world-cities
AL,ALB,Albania,Kamez,Kamez,Tirane,41.3833,19.7667,126777,4,0,,"41.3833,19.7667",SimpleMaps worldcities snapshot,https://simplemaps.com/data/world-cities
AL,ALB,Albania,Fier,Fier,Fier,40.7251,19.55823,120655,5,0,,"40.7251,19.55823",SimpleMaps worldcities snapshot,https://simplemaps.com/data/world-cities
DZ,DZA,Algeria,Algiers,Algiers,Alger,36.73225,3.08746,3415811,1,1,country,"36.73225,3.08746",SimpleMaps worldcities snapshot,https://simplemaps.com/data/world-cities
DZ,DZA,Algeria,Oran,Oran,Oran,35.69906,-0.63588,852000,2,0,,"35.69906,-0.63588",SimpleMaps worldcities snapshot,https://simplemaps.com/data/world-cities
DZ,DZA,Algeria,Constantine,Constantine,Constantine,36.365,6.61472,448374,3,0,,"36.365,6.61472",SimpleMaps worldcities snapshot,https://simplemaps.com/data/world-cities
DZ,DZA,Algeria,Blida,Blida,Blida,36.47004,2.8277,331779,4,0,,"36.47004,2.8277",SimpleMaps worldcities snapshot,https://simplemaps.com/data/world-cities
DZ,DZA,Algeria,Batna,Batna,Batna,35.55597,6.17414,290645,5,0,,"35.55597,6.17414",SimpleMaps worldcities snapshot,https://simplemaps.com/data/world-cities
AS,ASM,American Samoa,Pago Pago,Pago Pago,,-14.27806,-170.7025,12576,1,1,country,"-14.27806,-170.7025",SimpleMaps worldcities snapshot,https://simplemaps.com/data/world-cities
AD,AND,Andorra,Andorra la Vella,Andorra la Vella,Andorra la Vella,42.50779,1.52109,22151,1,1,country,"42.50779,1.52109",SimpleMaps worldcities snapshot,https://simplemaps.com/data/world-cities
AD,AND,Andorra,Canillo,Canillo,Canillo,42.567,1.5981,0,2,0,,"42.5670,1.5981",SimpleMaps worldcities snapshot,https://simplemaps.com/data/world-cities
AD,AND,Andorra,Encamp,Encamp,Encamp,42.5167,1.5667,0,3,0,,"42.5167,1.5667",SimpleMaps worldcities snapshot,https://simplemaps.com/data/world-cities
AD,AND,Andorra,Escaldes-Engordany,Escaldes-Engordany,Escaldes-Engordany,42.5085,1.5385,0,4,0,,"42.5085,1.5385",SimpleMaps worldcities snapshot,https://simplemaps.com/data/world-cities
AD,AND,Andorra,La Massana,La Massana,La Massana,42.5434,1.5148,0,5,0,,"42.5434,1.5148",SimpleMaps worldcities snapshot,https://simplemaps.com/data/world-cities
AO,AGO,Angola,Luanda,Luanda,Luanda,-8.83682,13.23432,8417000,1,1,country,"-8.83682,13.23432",SimpleMaps worldcities snapshot,https://simplemaps.com/data/world-cities
AO,AGO,Angola,Huambo,Huambo,Huambo,-12.77611,15.73917,665564,2,0,,"-12.77611,15.73917",SimpleMaps worldcities snapshot,https://simplemaps.com/data/world-cities
AO,AGO,Angola,Cabinda,Cabinda,Cabinda,-5.56198,12.19476,550000,3,0,,"-5.56198,12.19476",SimpleMaps worldcities snapshot,https://simplemaps.com/data/world-cities
AO,AGO,Angola,Benguela,Benguela,Benguela,-12.57674,13.40268,513000,4,0,,"-12.57674,13.40268",SimpleMaps worldcities snapshot,https://simplemaps.com/data/world-cities
AO,AGO,Angola,Lobito,Lobito,Benguela,-12.3644,13.53601,207932,5,0,,"-12.3644,13.53601",SimpleMaps worldcities snapshot,https://simplemaps.com/data/world-cities
AI,AIA,Anguilla,The Valley,The Valley,11205396,18.21704,-63.05783,2035,1,1,country,"18.21704,-63.05783",GeoNames cities15000,https://www.geonames.org/
AG,ATG,Antigua And Barbuda,Saint John's,Saint John's,Saint John,17.12096,-61.84329,21926,1,1,country,"17.12096,-61.84329",SimpleMaps worldcities snapshot,https://simplemaps.com/data/world-cities
AR,ARG,Argentina,Buenos Aires,Buenos Aires,"Buenos Aires, Ciudad Autonoma de",-34.61315,-58.37723,16157000,1,1,country,"-34.61315,-58.37723",SimpleMaps worldcities snapshot,https://simplemaps.com/data/world-cities
AR,ARG,Argentina,Cordoba,Cordoba,Cordoba,-31.40648,-64.18853,1329604,2,0,,"-31.40648,-64.18853",SimpleMaps worldcities snapshot,https://simplemaps.com/data/world-cities
AR,ARG,Argentina,Rosario,Rosario,Santa Fe,-32.94682,-60.63932,1193605,3,0,,"-32.94682,-60.63932",SimpleMaps worldcities snapshot,https://simplemaps.com/data/world-cities
AR,ARG,Argentina,San Miguel de Tucuman,San Miguel de Tucuman,Tucuman,-26.81601,-65.21051,605767,4,0,,"-26.81601,-65.21051",SimpleMaps worldcities snapshot,https://simplemaps.com/data/world-cities
AR,ARG,Argentina,Mar del Plata,Mar del Plata,Buenos Aires,-38.00042,-57.5562,593337,5,0,,"-38.00042,-57.5562",SimpleMaps worldcities snapshot,https://simplemaps.com/data/world-cities
AM,ARM,Armenia,Yerevan,Yerevan,Yerevan,40.17765,44.5126,1075800,1,1,country,"40.17765,44.5126",SimpleMaps worldcities snapshot,https://simplemaps.com/data/world-cities
AM,ARM,Armenia,Gyumri,Gyumri,Shirak,40.79305,43.84635,121976,2,0,,"40.79305,43.84635",SimpleMaps worldcities snapshot,https://simplemaps.com/data/world-cities
AM,ARM,Armenia,Vanadzor,Vanadzor,Lorri,40.8074,44.49704,90525,3,0,,"40.8074,44.49704",SimpleMaps worldcities snapshot,https://simplemaps.com/data/world-cities
AM,ARM,Armenia,Ejmiatsin,Ejmiatsin,Armavir,40.1728,44.2925,57500,4,0,,"40.1728,44.2925",SimpleMaps worldcities snapshot,https://simplemaps.com/data/world-cities
AM,ARM,Armenia,Abovyan,Abovyan,Kotayk',40.2717,44.63342,44400,5,0,,"40.2717,44.63342",SimpleMaps worldcities snapshot,https://simplemaps.com/data/world-cities
AW,ABW,Aruba,Oranjestad,Oranjestad,,12.52398,-70.02703,34980,1,1,country,"12.52398,-70.02703",SimpleMaps worldcities snapshot,https://simplemaps.com/data/world-cities
AU,AUS,Australia,Sydney,Sydney,New South Wales,-33.86785,151.20732,5312163,1,0,,"-33.86785,151.20732",SimpleMaps worldcities snapshot,https://simplemaps.com/data/world-cities
AU,AUS,Australia,Melbourne,Melbourne,Victoria,-37.814,144.96332,5078193,2,0,,"-37.814,144.96332",SimpleMaps worldcities snapshot,https://simplemaps.com/data/world-cities
AU,AUS,Australia,Brisbane,Brisbane,Queensland,-27.46794,153.02809,2514184,3,0,,"-27.46794,153.02809",SimpleMaps worldcities snapshot,https://simplemaps.com/data/world-cities
AU,AUS,Australia,Perth,Perth,Western Australia,-31.95224,115.8614,2059484,4,0,,"-31.95224,115.8614",SimpleMaps worldcities snapshot,https://simplemaps.com/data/world-cities
AU,AUS,Australia,Adelaide,Adelaide,South Australia,-34.92866,138.59863,1345777,5,0,,"-34.92866,138.59863",SimpleMaps worldcities snapshot,https://simplemaps.com/data/world-cities
AU,AUS,Australia,Canberra,Canberra,Australian Capital Territory,-35.28346,149.12807,426704,7,1,country,"-35.28346,149.12807",SimpleMaps worldcities snapshot,https://simplemaps.com/data/world-cities
AT,AUT,Austria,Vienna,Vienna,Wien,48.20849,16.37208,1840573,1,1,country,"48.20849,16.37208",SimpleMaps worldcities snapshot,https://simplemaps.com/data/world-cities
AT,AUT,Austria,Graz,Graz,Steiermark,47.06733,15.44197,289440,2,0,,"47.06733,15.44197",SimpleMaps worldcities snapshot,https://simplemaps.com/data/world-cities
AT,AUT,Austria,Linz,Linz,Oberosterreich,48.30639,14.28611,204846,3,0,,"48.30639,14.28611",SimpleMaps worldcities snapshot,https://simplemaps.com/data/world-cities
AT,AUT,Austria,Salzburg,Salzburg,Salzburg,47.79941,13.04399,154076,4,0,,"47.79941,13.04399",SimpleMaps worldcities snapshot,https://simplemaps.com/data/world-cities
AT,AUT,Austria,Innsbruck,Innsbruck,Tirol,47.26266,11.39454,132493,5,0,,"47.26266,11.39454",SimpleMaps worldcities snapshot,https://simplemaps.com/data/world-cities
AZ,AZE,Azerbaijan,Baku,Baku,Baki,40.37767,49.89201,2181800,1,1,country,"40.37767,49.89201",SimpleMaps worldcities snapshot,https://simplemaps.com/data/world-cities
AZ,AZE,Azerbaijan,Sumqayit,Sumqayit,Sumqayit,40.58972,49.66861,341200,2,0,,"40.58972,49.66861",SimpleMaps worldcities snapshot,https://simplemaps.com/data/world-cities
AZ,AZE,Azerbaijan,Ganca,Ganca,G@nc@,40.6828,46.3606,331400,3,0,,"40.6828,46.3606",SimpleMaps worldcities snapshot,https://simplemaps.com/data/world-cities
AZ,AZE,Azerbaijan,Mingacevir,Mingacevir,Ming@cevir,40.77,47.0489,98800,4,0,,"40.7700,47.0489",SimpleMaps worldcities snapshot,https://simplemaps.com/data/world-cities
AZ,AZE,Azerbaijan,Xirdalan,Xirdalan,Abseron,40.4486,49.7564,95200,5,0,,"40.4486,49.7564",SimpleMaps worldcities snapshot,https://simplemaps.com/data/world-cities
BS,BHS,"Bahamas, The",Nassau,Nassau,,25.05823,-77.34306,274400,1,1,country,"25.05823,-77.34306",SimpleMaps worldcities snapshot,https://simplemaps.com/data/world-cities
BS,BHS,"Bahamas, The",Freeport City,Freeport City,City of Freeport,26.5333,-78.7,25383,2,0,,"26.5333,-78.7000",SimpleMaps worldcities snapshot,https://simplemaps.com/data/world-cities
BS,BHS,"Bahamas, The",Marsh Harbour,Marsh Harbour,Central Abaco,26.4,-77.17,6283,3,0,,"26.4000,-77.1700",SimpleMaps worldcities snapshot,https://simplemaps.com/data/world-cities
BH,BHR,Bahrain,Manama,Manama,Al 'Asimah,26.22787,50.58565,157474,1,1,country,"26.22787,50.58565",SimpleMaps worldcities snapshot,https://simplemaps.com/data/world-cities
BH,BHR,Bahrain,Al Muharraq,Al Muharraq,Al Muharraq,26.25,50.6167,75000,2,0,,"26.2500,50.6167",SimpleMaps worldcities snapshot,https://simplemaps.com/data/world-cities
BH,BHR,Bahrain,Madinat Hamad,Madinat Hamad,Ash Shamaliyah,26.11528,50.50694,52700,3,0,,"26.11528,50.50694",SimpleMaps worldcities snapshot,https://simplemaps.com/data/world-cities
BH,BHR,Bahrain,Madinat `Isa,Madinat `Isa,Al Janubiyah,26.17361,50.54778,40000,4,0,,"26.17361,50.54778",SimpleMaps worldcities snapshot,https://simplemaps.com/data/world-cities
BD,BGD,Bangladesh,Dhaka,Dhaka,Dhaka,23.7104,90.40744,15443000,1,1,country,"23.7104,90.40744",SimpleMaps worldcities snapshot,https://simplemaps.com/data/world-cities
BD,BGD,Bangladesh,Chattogram,Chattogram,Chittagong,22.3384,91.83168,2581643,2,0,,"22.3384,91.83168",SimpleMaps worldcities snapshot,https://simplemaps.com/data/world-cities
BD,BGD,Bangladesh,Khulna,Khulna,Khulna,22.80979,89.56439,1311100,3,0,,"22.80979,89.56439",SimpleMaps worldcities snapshot,https://simplemaps.com/data/world-cities
BD,BGD,Bangladesh,Sylhet,Sylhet,Sylhet,24.89904,91.87198,479837,4,0,,"24.89904,91.87198",SimpleMaps worldcities snapshot,https://simplemaps.com/data/world-cities
BD,BGD,Bangladesh,Rajshahi,Rajshahi,Rajshahi,24.3667,88.6,448087,5,0,,"24.3667,88.6000",SimpleMaps worldcities snapshot,https://simplemaps.com/data/world-cities
BB,BRB,Barbados,Bridgetown,Bridgetown,Saint Michael,13.10732,-59.62021,110000,1,1,country,"13.10732,-59.62021",SimpleMaps worldcities snapshot,https://simplemaps.com/data/world-cities
BY,BLR,Belarus,Minsk,Minsk,Minsk,53.90019,27.56653,2020600,1,1,country,"53.90019,27.56653",SimpleMaps worldcities snapshot,https://simplemaps.com/data/world-cities
BY,BLR,Belarus,Homyel',Homyel',Homyel'skaya Voblasts',52.4417,30.9833,510300,2,0,,"52.4417,30.9833",SimpleMaps worldcities snapshot,https://simplemaps.com/data/world-cities
BY,BLR,Belarus,Vitsyebsk,Vitsyebsk,Vitsyebskaya Voblasts',55.1833,30.1667,364800,3,0,,"55.1833,30.1667",SimpleMaps worldcities snapshot,https://simplemaps.com/data/world-cities
BY,BLR,Belarus,Mahilyow,Mahilyow,Mahilyowskaya Voblasts',53.90876,30.34044,357100,4,0,,"53.90876,30.34044",SimpleMaps worldcities snapshot,https://simplemaps.com/data/world-cities
BY,BLR,Belarus,Hrodna,Hrodna,Hrodzyenskaya Voblasts',53.6758,23.82887,356900,5,0,,"53.6758,23.82887",SimpleMaps worldcities snapshot,https://simplemaps.com/data/world-cities
BE,BEL,Belgium,Antwerp,Antwerp,Flanders,51.2211,4.3997,529247,1,0,,"51.2211,4.3997",SimpleMaps worldcities snapshot,https://simplemaps.com/data/world-cities
BE,BEL,Belgium,Gent,Gent,Flanders,51.05,3.71667,262219,2,0,,"51.05,3.71667",SimpleMaps worldcities snapshot,https://simplemaps.com/data/world-cities
BE,BEL,Belgium,Charleroi,Charleroi,Wallonia,50.41136,4.44448,201816,3,0,,"50.41136,4.44448",SimpleMaps worldcities snapshot,https://simplemaps.com/data/world-cities
BE,BEL,Belgium,Liege,Liege,Wallonia,50.63373,5.56749,197885,4,0,,"50.63373,5.56749",SimpleMaps worldcities snapshot,https://simplemaps.com/data/world-cities
BE,BEL,Belgium,Brussels,Brussels,Brussels-Capital Region,50.85045,4.34878,185103,5,1,country,"50.85045,4.34878",SimpleMaps worldcities snapshot,https://simplemaps.com/data/world-cities
BZ,BLZ,Belize,Belize City,Belize City,Belize,17.49952,-88.19756,57169,1,0,,"17.49952,-88.19756",SimpleMaps worldcities snapshot,https://simplemaps.com/data/world-cities
BZ,BLZ,Belize,Orange Walk,Orange Walk,Orange Walk,18.08124,-88.56328,18000,2,0,,"18.08124,-88.56328",SimpleMaps worldcities snapshot,https://simplemaps.com/data/world-cities
BZ,BLZ,Belize,Belmopan,Belmopan,Cayo,17.25376,-88.76401,17222,3,1,country,"17.25376,-88.76401",SimpleMaps worldcities snapshot,https://simplemaps.com/data/world-cities
BZ,BLZ,Belize,San Ignacio,San Ignacio,Cayo,17.1588,-89.0696,16977,4,0,,"17.1588,-89.0696",SimpleMaps worldcities snapshot,https://simplemaps.com/data/world-cities
BZ,BLZ,Belize,San Pedro,San Pedro,Belize,17.91598,-87.9659,11767,5,0,,"17.91598,-87.9659",SimpleMaps worldcities snapshot,https://simplemaps.com/data/world-cities
BJ,BEN,Benin,Cotonou,Cotonou,Littoral,6.36536,2.41833,762000,1,1,country,"6.36536,2.41833",SimpleMaps worldcities snapshot,https://simplemaps.com/data/world-cities
BJ,BEN,Benin,Porto-Novo,Porto-Novo,Oueme,6.49646,2.60359,300000,2,1,country,"6.49646,2.60359",SimpleMaps worldcities snapshot,https://simplemaps.com/data/world-cities
BJ,BEN,Benin,Djougou,Djougou,Donga,9.70853,1.66598,202810,3,0,,"9.70853,1.66598",SimpleMaps worldcities snapshot,https://simplemaps.com/data/world-cities
BJ,BEN,Benin,Parakou,Parakou,Borgou,9.33716,2.63031,188853,4,0,,"9.33716,2.63031",SimpleMaps worldcities snapshot,https://simplemaps.com/data/world-cities
BJ,BEN,Benin,Kandi,Kandi,Alibori,11.13417,2.93861,109701,5,0,,"11.13417,2.93861",SimpleMaps worldcities snapshot,https://simplemaps.com/data/world-cities
BM,BMU,Bermuda,Hamilton,Hamilton,Hamilton,32.2949,-64.78303,52320,1,1,country,"32.2949,-64.78303",SimpleMaps worldcities snapshot,https://simplemaps.com/data/world-cities
BT,BTN,Bhutan,Thimphu,Thimphu,Thimphu,27.46609,89.64191,104000,1,1,country,"27.46609,89.64191",SimpleMaps worldcities snapshot,https://simplemaps.com/data/world-cities
BT,BTN,Bhutan,Paro,Paro,Paro,27.4333,89.4167,15000,2,0,,"27.4333,89.4167",SimpleMaps worldcities snapshot,https://simplemaps.com/data/world-cities
BT,BTN,Bhutan,Punakha,Punakha,Punakha,27.6167,89.8667,5000,3,0,,"27.6167,89.8667",SimpleMaps worldcities snapshot,https://simplemaps.com/data/world-cities
BT,BTN,Bhutan,Wangdue Phodrang,Wangdue Phodrang,Wangdue Phodrang,27.4333,89.9167,5000,4,0,,"27.4333,89.9167",SimpleMaps worldcities snapshot,https://simplemaps.com/data/world-cities
BT,BTN,Bhutan,Daga,Daga,Dagana,27.0753,89.8769,0,5,0,,"27.0753,89.8769",SimpleMaps worldcities snapshot,https://simplemaps.com/data/world-cities
BO,BOL,Bolivia,Santa Cruz,Santa Cruz,Santa Cruz,-17.7892,-63.1975,3151676,1,0,,"-17.7892,-63.1975",SimpleMaps worldcities snapshot,https://simplemaps.com/data/world-cities
BO,BOL,Bolivia,La Paz,La Paz,La Paz,-16.5,-68.15,2867504,2,1,country,"-16.5,-68.15",SimpleMaps worldcities snapshot,https://simplemaps.com/data/world-cities
BO,BOL,Bolivia,Cochabamba,Cochabamba,Cochabamba,-17.38195,-66.15995,632013,3,0,,"-17.38195,-66.15995",SimpleMaps worldcities snapshot,https://simplemaps.com/data/world-cities
BO,BOL,Bolivia,Sucre,Sucre,Chuquisaca,-19.03332,-65.26274,300000,4,1,country,"-19.03332,-65.26274",SimpleMaps worldcities snapshot,https://simplemaps.com/data/world-cities
BO,BOL,Bolivia,Oruro,Oruro,Oruro,-17.97153,-67.0932,264683,5,0,,"-17.97153,-67.0932",SimpleMaps worldcities snapshot,https://simplemaps.com/data/world-cities
BQ,BES,"Bonaire, Saint Eustatius and Saba",Kralendijk,Kralendijk,BO,12.15,-68.26667,3081,1,1,country,"12.15,-68.26667",GeoNames cities15000,https://www.geonames.org/
BA,BIH,Bosnia And Herzegovina,Sarajevo,Sarajevo,"Bosnia and Herzegovina, Federation of",43.84864,18.35644,275524,1,1,country,"43.84864,18.35644",SimpleMaps worldcities snapshot,https://simplemaps.com/data/world-cities
BA,BIH,Bosnia And Herzegovina,Banja Luka,Banja Luka,"Srpska, Republika",44.77879,17.20629,199191,2,0,,"44.77879,17.20629",SimpleMaps worldcities snapshot,https://simplemaps.com/data/world-cities
BA,BIH,Bosnia And Herzegovina,Mostar,Mostar,"Bosnia and Herzegovina, Federation of",43.34333,17.80806,163067,3,0,,"43.34333,17.80806",SimpleMaps worldcities snapshot,https://simplemaps.com/data/world-cities
BA,BIH,Bosnia And Herzegovina,Bijeljina,Bijeljina,"Srpska, Republika",44.75874,19.21437,114663,4,0,,"44.75874,19.21437",SimpleMaps worldcities snapshot,https://simplemaps.com/data/world-cities
BA,BIH,Bosnia And Herzegovina,Tuzla,Tuzla,"Bosnia and Herzegovina, Federation of",44.53842,18.66709,110979,5,0,,"44.53842,18.66709",SimpleMaps worldcities snapshot,https://simplemaps.com/data/world-cities
BW,BWA,Botswana,Gaborone,Gaborone,Gaborone,-24.65451,25.90859,231626,1,1,country,"-24.65451,25.90859",SimpleMaps worldcities snapshot,https://simplemaps.com/data/world-cities
BW,BWA,Botswana,Francistown,Francistown,Francistown,-21.17,27.50778,89979,2,0,,"-21.17,27.50778",SimpleMaps worldcities snapshot,https://simplemaps.com/data/world-cities
BW,BWA,Botswana,Molepolole,Molepolole,Kweneng,-24.40659,25.49508,67598,3,0,,"-24.40659,25.49508",SimpleMaps worldcities snapshot,https://simplemaps.com/data/world-cities
BW,BWA,Botswana,Mahalapye,Mahalapye,Central,-23.10407,26.81421,50744,4,0,,"-23.10407,26.81421",SimpleMaps worldcities snapshot,https://simplemaps.com/data/world-cities
BW,BWA,Botswana,Maun,Maun,North West,-19.98333,23.41667,49945,5,0,,"-19.98333,23.41667",SimpleMaps worldcities snapshot,https://simplemaps.com/data/world-cities
BR,BRA,Brazil,Sao Paulo,Sao Paulo,Sao Paulo,-23.5475,-46.63611,22046000,1,0,,"-23.5475,-46.63611",SimpleMaps worldcities snapshot,https://simplemaps.com/data/world-cities
BR,BRA,Brazil,Rio de Janeiro,Rio de Janeiro,Rio de Janeiro,-22.90642,-43.18223,12272000,2,0,,"-22.90642,-43.18223",SimpleMaps worldcities snapshot,https://simplemaps.com/data/world-cities
BR,BRA,Brazil,Belo Horizonte,Belo Horizonte,Minas Gerais,-19.92083,-43.93778,5159000,3,0,,"-19.92083,-43.93778",SimpleMaps worldcities snapshot,https://simplemaps.com/data/world-cities
BR,BRA,Brazil,Brasilia,Brasilia,Distrito Federal,-15.77972,-47.92972,3015268,4,1,country,"-15.77972,-47.92972",SimpleMaps worldcities snapshot,https://simplemaps.com/data/world-cities
BR,BRA,Brazil,Salvador,Salvador,Bahia,-12.97563,-38.49096,2921087,5,0,,"-12.97563,-38.49096",SimpleMaps worldcities snapshot,https://simplemaps.com/data/world-cities
BR,BRA,Brazil,Brasileia,Brasileia,Acre,-11.01611,-68.74806,24765,506,1,country,"-11.01611,-68.74806",SimpleMaps worldcities snapshot,https://simplemaps.com/data/world-cities
VG,VGB,British Virgin Islands,Road Town,Road Town,00,18.42693,-64.62079,8449,1,1,country,"18.42693,-64.62079",GeoNames cities15000,https://www.geonames.org/
BN,BRN,Brunei,Bandar Seri Begawan,Bandar Seri Begawan,Brunei and Muara,4.89035,114.94006,50000,1,1,country,"4.89035,114.94006",SimpleMaps worldcities snapshot,https://simplemaps.com/data/world-cities
BN,BRN,Brunei,Kuala Belait,Kuala Belait,Belait,4.58361,114.2312,30267,2,0,,"4.58361,114.2312",SimpleMaps worldcities snapshot,https://simplemaps.com/data/world-cities
BN,BRN,Brunei,Seria,Seria,Belait,4.60637,114.32476,21082,3,0,,"4.60637,114.32476",SimpleMaps worldcities snapshot,https://simplemaps.com/data/world-cities
BN,BRN,Brunei,Bangar,Bangar,Temburong,4.7083,115.0736,0,4,0,,"4.7083,115.0736",SimpleMaps worldcities snapshot,https://simplemaps.com/data/world-cities
BN,BRN,Brunei,Tutong,Tutong,Tutong,4.80278,114.64917,0,5,0,,"4.80278,114.64917",SimpleMaps worldcities snapshot,https://simplemaps.com/data/world-cities
BG,BGR,Bulgaria,Sofia,Sofia,Sofia-Grad,42.69751,23.32415,1355142,1,1,country,"42.69751,23.32415",SimpleMaps worldcities snapshot,https://simplemaps.com/data/world-cities
BG,BGR,Bulgaria,Plovdiv,Plovdiv,Plovdiv,42.15387,24.75001,384088,2,0,,"42.15387,24.75001",SimpleMaps worldcities snapshot,https://simplemaps.com/data/world-cities
BG,BGR,Bulgaria,Varna,Varna,Varna,43.21912,27.91024,369162,3,0,,"43.21912,27.91024",SimpleMaps worldcities snapshot,https://simplemaps.com/data/world-cities
BG,BGR,Bulgaria,Burgas,Burgas,Burgas,42.50651,27.46886,226868,4,0,,"42.50651,27.46886",SimpleMaps worldcities snapshot,https://simplemaps.com/data/world-cities
BG,BGR,Bulgaria,Ruse,Ruse,Ruse,43.84872,25.9534,163712,5,0,,"43.84872,25.9534",SimpleMaps worldcities snapshot,https://simplemaps.com/data/world-cities
BF,BFA,Burkina Faso,Ouagadougou,Ouagadougou,Centre,12.36566,-1.53388,1626950,1,1,country,"12.36566,-1.53388",SimpleMaps worldcities snapshot,https://simplemaps.com/data/world-cities
BF,BFA,Burkina Faso,Bobo-Dioulasso,Bobo-Dioulasso,Hauts-Bassins,11.18064,-4.29489,360106,2,0,,"11.18064,-4.29489",SimpleMaps worldcities snapshot,https://simplemaps.com/data/world-cities
BF,BFA,Burkina Faso,Koudougou,Koudougou,Centre-Ouest,12.25188,-2.36694,87347,3,0,,"12.25188,-2.36694",SimpleMaps worldcities snapshot,https://simplemaps.com/data/world-cities
BF,BFA,Burkina Faso,Ouahigouya,Ouahigouya,Nord,13.5769,-2.41786,79504,4,0,,"13.5769,-2.41786",SimpleMaps worldcities snapshot,https://simplemaps.com/data/world-cities
BF,BFA,Burkina Faso,Banfora,Banfora,Cascades,10.64064,-4.75285,60288,5,0,,"10.64064,-4.75285",SimpleMaps worldcities snapshot,https://simplemaps.com/data/world-cities
MM,MMR,Burma,Rangoon,Rangoon,Yangon,16.8,96.15,5430000,1,1,country,"16.8000,96.1500",SimpleMaps worldcities snapshot,https://simplemaps.com/data/world-cities
MM,MMR,Burma,Mandalay,Mandalay,Mandalay,21.97473,96.08359,1225546,2,0,,"21.97473,96.08359",SimpleMaps worldcities snapshot,https://simplemaps.com/data/world-cities
MM,MMR,Burma,Nay Pyi Taw,Nay Pyi Taw,Nay Pyi Taw,19.745,96.12972,1160242,3,1,country,"19.745,96.12972",SimpleMaps worldcities snapshot,https://simplemaps.com/data/world-cities
MM,MMR,Burma,Hpa-An,Hpa-An,Kayin State,16.88953,97.63482,421525,4,0,,"16.88953,97.63482",SimpleMaps worldcities snapshot,https://simplemaps.com/data/world-cities
MM,MMR,Burma,Bago,Bago,Bago,17.33521,96.48135,284179,5,0,,"17.33521,96.48135",SimpleMaps worldcities snapshot,https://simplemaps.com/data/world-cities
BI,BDI,Burundi,Bujumbura,Bujumbura,Bujumbura Mairie,-3.38193,29.36142,658859,1,1,country,"-3.38193,29.36142",SimpleMaps worldcities snapshot,https://simplemaps.com/data/world-cities
BI,BDI,Burundi,Gitega,Gitega,Gitega,-3.42708,29.92463,41944,2,1,country,"-3.42708,29.92463",SimpleMaps worldcities snapshot,https://simplemaps.com/data/world-cities
BI,BDI,Burundi,Ngozi,Ngozi,Ngozi,-2.9075,29.8306,39884,3,0,,"-2.9075,29.8306",SimpleMaps worldcities snapshot,https://simplemaps.com/data/world-cities
BI,BDI,Burundi,Kayanza,Kayanza,Kayanza,-2.9221,29.6293,21767,5,0,,"-2.9221,29.6293",SimpleMaps worldcities snapshot,https://simplemaps.com/data/world-cities
CV,CPV,Cabo Verde,Praia,Praia,Praia,14.93152,-23.51254,127832,1,1,country,"14.93152,-23.51254",SimpleMaps worldcities snapshot,https://simplemaps.com/data/world-cities
CV,CPV,Cabo Verde,Mindelo,Mindelo,Sao Vicente,16.89014,-24.98042,70468,2,0,,"16.89014,-24.98042",SimpleMaps worldcities snapshot,https://simplemaps.com/data/world-cities
CV,CPV,Cabo Verde,Assomada,Assomada,Santa Catarina,15.1,-23.68333,12026,3,0,,"15.1,-23.68333",SimpleMaps worldcities snapshot,https://simplemaps.com/data/world-cities
CV,CPV,Cabo Verde,Pedra Badejo,Pedra Badejo,Santa Cruz,15.1375,-23.5333,9530,4,0,,"15.1375,-23.5333",SimpleMaps worldcities snapshot,https://simplemaps.com/data/world-cities
CV,CPV,Cabo Verde,Sao Filipe,Sao Filipe,Sao Filipe,14.8966,-24.4955,8122,5,0,,"14.8966,-24.4955",SimpleMaps worldcities snapshot,https://simplemaps.com/data/world-cities
KH,KHM,Cambodia,Phnom Penh,Phnom Penh,Phnom Penh,11.56245,104.91601,2129371,1,1,country,"11.56245,104.91601",SimpleMaps worldcities snapshot,https://simplemaps.com/data/world-cities
KH,KHM,Cambodia,Siem Reap,Siem Reap,Siem Reap,13.36179,103.86056,147866,2,0,,"13.36179,103.86056",SimpleMaps worldcities snapshot,https://simplemaps.com/data/world-cities
KH,KHM,Cambodia,Battambang,Battambang,Battambang,13.10271,103.19822,130000,3,0,,"13.10271,103.19822",SimpleMaps worldcities snapshot,https://simplemaps.com/data/world-cities
KH,KHM,Cambodia,Kampong Cham,Kampong Cham,Kampong Cham,11.99339,105.4635,118242,4,0,,"11.99339,105.4635",SimpleMaps worldcities snapshot,https://simplemaps.com/data/world-cities
KH,KHM,Cambodia,Prey Veng,Prey Veng,Prey Veng,11.48682,105.32533,74000,5,0,,"11.48682,105.32533",SimpleMaps worldcities snapshot,https://simplemaps.com/data/world-cities
CM,CMR,Cameroon,Douala,Douala,Littoral,4.04827,9.70428,2446945,1,0,,"4.04827,9.70428",SimpleMaps worldcities snapshot,https://simplemaps.com/data/world-cities
CM,CMR,Cameroon,Yaounde,Yaounde,Centre,3.86667,11.51667,2440462,2,1,country,"3.86667,11.51667",SimpleMaps worldcities snapshot,https://simplemaps.com/data/world-cities
CM,CMR,Cameroon,Maroua,Maroua,Extreme-Nord,10.59095,14.31593,319941,3,0,,"10.59095,14.31593",SimpleMaps worldcities snapshot,https://simplemaps.com/data/world-cities
CM,CMR,Cameroon,Bafoussam,Bafoussam,Ouest,5.47775,10.41759,290768,4,0,,"5.47775,10.41759",SimpleMaps worldcities snapshot,https://simplemaps.com/data/world-cities
CM,CMR,Cameroon,Bamenda,Bamenda,North-West,5.9597,10.14597,269530,5,0,,"5.9597,10.14597",SimpleMaps worldcities snapshot,https://simplemaps.com/data/world-cities
CA,CAN,Canada,Toronto,Toronto,Ontario,43.70643,-79.39864,5429524,1,0,,"43.70643,-79.39864",SimpleMaps worldcities snapshot,https://simplemaps.com/data/world-cities
CA,CAN,Canada,Montreal,Montreal,Quebec,45.50884,-73.58781,3519595,2,0,,"45.50884,-73.58781",SimpleMaps worldcities snapshot,https://simplemaps.com/data/world-cities
CA,CAN,Canada,Vancouver,Vancouver,British Columbia,49.24966,-123.11934,2264823,3,0,,"49.24966,-123.11934",SimpleMaps worldcities snapshot,https://simplemaps.com/data/world-cities
CA,CAN,Canada,Calgary,Calgary,Alberta,51.05011,-114.08529,1239220,4,0,,"51.05011,-114.08529",SimpleMaps worldcities snapshot,https://simplemaps.com/data/world-cities
CA,CAN,Canada,Edmonton,Edmonton,Alberta,53.55014,-113.46871,1062643,5,0,,"53.55014,-113.46871",SimpleMaps worldcities snapshot,https://simplemaps.com/data/world-cities
CA,CAN,Canada,Ottawa,Ottawa,Ontario,45.41117,-75.69812,989567,6,1,country,"45.41117,-75.69812",SimpleMaps worldcities snapshot,https://simplemaps.com/data/world-cities
KY,CYM,Cayman Islands,George Town,George Town,,19.2866,-81.37436,27704,1,1,country,"19.2866,-81.37436",SimpleMaps worldcities snapshot,https://simplemaps.com/data/world-cities
CF,CAF,Central African Republic,Bangui,Bangui,Bangui,4.36122,18.55496,734350,1,1,country,"4.36122,18.55496",SimpleMaps worldcities snapshot,https://simplemaps.com/data/world-cities
CF,CAF,Central African Republic,Bimbo,Bimbo,Ombella-Mpoko,4.25671,18.41583,124176,2,0,,"4.25671,18.41583",SimpleMaps worldcities snapshot,https://simplemaps.com/data/world-cities
CF,CAF,Central African Republic,Berberati,Berberati,Mambere-Kadei,4.26116,15.79216,76918,3,0,,"4.26116,15.79216",SimpleMaps worldcities snapshot,https://simplemaps.com/data/world-cities
CF,CAF,Central African Republic,Carnot,Carnot,Mambere-Kadei,4.94273,15.87735,45421,4,0,,"4.94273,15.87735",SimpleMaps worldcities snapshot,https://simplemaps.com/data/world-cities
CF,CAF,Central African Republic,Bambari,Bambari,Ouaka,5.76795,20.67565,41356,5,0,,"5.76795,20.67565",SimpleMaps worldcities snapshot,https://simplemaps.com/data/world-cities
TD,TCD,Chad,N'Djamena,N'Djamena,Ville de N'Djamena,12.11,15.05,1092066,1,1,country,"12.1100,15.0500",SimpleMaps worldcities snapshot,https://simplemaps.com/data/world-cities
TD,TCD,Chad,Sarh,Sarh,Moyen-Chari,9.14555,18.38331,169196,2,0,,"9.14555,18.38331",SimpleMaps worldcities snapshot,https://simplemaps.com/data/world-cities
TD,TCD,Chad,Moundou,Moundou,Logone Occidental,8.57437,16.07722,142462,3,0,,"8.57437,16.07722",SimpleMaps worldcities snapshot,https://simplemaps.com/data/world-cities
TD,TCD,Chad,Kelo,Kelo,Tandjile,9.30859,15.80658,96224,4,0,,"9.30859,15.80658",SimpleMaps worldcities snapshot,https://simplemaps.com/data/world-cities
TD,TCD,Chad,Yao,Yao,Batha,12.8508,17.5608,91507,5,0,,"12.8508,17.5608",SimpleMaps worldcities snapshot,https://simplemaps.com/data/world-cities
CL,CHL,Chile,Santiago,Santiago,Region Metropolitana,-33.45694,-70.64827,7007000,1,1,country,"-33.45694,-70.64827",SimpleMaps worldcities snapshot,https://simplemaps.com/data/world-cities
CL,CHL,Chile,Antofagasta,Antofagasta,Antofagasta,-23.65094,-70.39752,380695,2,0,,"-23.65094,-70.39752",SimpleMaps worldcities snapshot,https://simplemaps.com/data/world-cities
CL,CHL,Chile,Vina del Mar,Vina del Mar,Valparaiso,-33.02457,-71.55183,332875,3,0,,"-33.02457,-71.55183",SimpleMaps worldcities snapshot,https://simplemaps.com/data/world-cities
CL,CHL,Chile,Valparaiso,Valparaiso,Valparaiso,-33.036,-71.62963,296655,4,0,,"-33.036,-71.62963",SimpleMaps worldcities snapshot,https://simplemaps.com/data/world-cities
CL,CHL,Chile,Temuco,Temuco,Araucania,-38.73628,-72.59738,282415,5,0,,"-38.73628,-72.59738",SimpleMaps worldcities snapshot,https://simplemaps.com/data/world-cities
CN,CHN,China,Shanghai,Shanghai,Shanghai,31.22222,121.45806,22120000,1,0,,"31.22222,121.45806",SimpleMaps worldcities snapshot,https://simplemaps.com/data/world-cities
CN,CHN,China,Guangzhou,Guangzhou,Guangdong,23.11667,113.25,20902000,2,0,,"23.11667,113.25",SimpleMaps worldcities snapshot,https://simplemaps.com/data/world-cities
CN,CHN,China,Beijing,Beijing,Beijing,39.9075,116.39723,19433000,3,1,country,"39.9075,116.39723",SimpleMaps worldcities snapshot,https://simplemaps.com/data/world-cities
CN,CHN,China,Shenzhen,Shenzhen,Guangdong,22.54554,114.0683,15929000,4,0,,"22.54554,114.0683",SimpleMaps worldcities snapshot,https://simplemaps.com/data/world-cities
CN,CHN,China,Nanyang,Nanyang,Henan,33.00524,112.54659,12010000,5,0,,"33.00524,112.54659",SimpleMaps worldcities snapshot,https://simplemaps.com/data/world-cities
CX,CXR,Christmas Island,Flying Fish Cove,Flying Fish Cove,00,-10.42172,105.67912,500,1,1,country,"-10.42172,105.67912",GeoNames cities15000,https://www.geonames.org/
CC,CCK,Cocos Islands,West Island,West Island,,-12.15681,96.82251,120,1,1,country,"-12.15681,96.82251",GeoNames cities15000,https://www.geonames.org/
CO,COL,Colombia,Bogota,Bogota,Bogota,4.60971,-74.08175,9464000,1,1,country,"4.60971,-74.08175",SimpleMaps worldcities snapshot,https://simplemaps.com/data/world-cities
CO,COL,Colombia,Medellin,Medellin,Antioquia,6.245,-75.57151,2529403,2,0,,"6.245,-75.57151",SimpleMaps worldcities snapshot,https://simplemaps.com/data/world-cities
CO,COL,Colombia,Cali,Cali,Valle del Cauca,3.43054,-76.5199,2471474,3,0,,"3.43054,-76.5199",SimpleMaps worldcities snapshot,https://simplemaps.com/data/world-cities
CO,COL,Colombia,Barranquilla,Barranquilla,Atlantico,10.96854,-74.78132,1798000,4,0,,"10.96854,-74.78132",SimpleMaps worldcities snapshot,https://simplemaps.com/data/world-cities
CO,COL,Colombia,Cartagena,Cartagena,Bolivar,10.39817,-75.49328,1036412,5,0,,"10.39817,-75.49328",SimpleMaps worldcities snapshot,https://simplemaps.com/data/world-cities
KM,COM,Comoros,Moroni,Moroni,Grande Comore,-11.70216,43.25506,111329,1,1,country,"-11.70216,43.25506",SimpleMaps worldcities snapshot,https://simplemaps.com/data/world-cities
KM,COM,Comoros,Mutsamudu,Mutsamudu,Anjouan,-12.1667,44.4,30000,2,0,,"-12.1667,44.4000",SimpleMaps worldcities snapshot,https://simplemaps.com/data/world-cities
KM,COM,Comoros,Mkazi,Mkazi,Grande Comore,-11.7323,43.2671,8438,3,0,,"-11.7323,43.2671",SimpleMaps worldcities snapshot,https://simplemaps.com/data/world-cities
KM,COM,Comoros,Mitsamiouli,Mitsamiouli,Grande Comore,-11.3819,43.3,7235,4,0,,"-11.3819,43.3000",SimpleMaps worldcities snapshot,https://simplemaps.com/data/world-cities
KM,COM,Comoros,Fomboni,Fomboni,Moheli,-12.28759,43.74344,0,5,0,,"-12.28759,43.74344",SimpleMaps worldcities snapshot,https://simplemaps.com/data/world-cities
CG,COG,Congo (Brazzaville),Brazzaville,Brazzaville,Brazzaville,-4.26613,15.28318,1827000,1,1,country,"-4.26613,15.28318",SimpleMaps worldcities snapshot,https://simplemaps.com/data/world-cities
CG,COG,Congo (Brazzaville),Pointe-Noire,Pointe-Noire,Pointe-Noire,-4.77609,11.86352,829134,2,0,,"-4.77609,11.86352",SimpleMaps worldcities snapshot,https://simplemaps.com/data/world-cities
CG,COG,Congo (Brazzaville),Dolisie,Dolisie,Niari,-4.19834,12.66664,103894,3,0,,"-4.19834,12.66664",SimpleMaps worldcities snapshot,https://simplemaps.com/data/world-cities
CG,COG,Congo (Brazzaville),Kayes,Kayes,Bouenza,-4.20493,13.28608,62521,4,0,,"-4.20493,13.28608",SimpleMaps worldcities snapshot,https://simplemaps.com/data/world-cities
CG,COG,Congo (Brazzaville),Owando,Owando,Cuvette,-0.48193,15.89988,34070,5,0,,"-0.48193,15.89988",SimpleMaps worldcities snapshot,https://simplemaps.com/data/world-cities
CD,COD,Congo (Kinshasa),Kinshasa,Kinshasa,Kinshasa,-4.32758,15.31357,13528000,1,1,country,"-4.32758,15.31357",SimpleMaps worldcities snapshot,https://simplemaps.com/data/world-cities
CD,COD,Congo (Kinshasa),Kananga,Kananga,Kasai Central,-5.89624,22.41659,1971704,2,0,,"-5.89624,22.41659",SimpleMaps worldcities snapshot,https://simplemaps.com/data/world-cities
CD,COD,Congo (Kinshasa),Lubumbashi,Lubumbashi,Haut-Katanga,-11.66089,27.47938,1786397,3,0,,"-11.66089,27.47938",SimpleMaps worldcities snapshot,https://simplemaps.com/data/world-cities
CD,COD,Congo (Kinshasa),Mbuji-Mayi,Mbuji-Mayi,Kasai Oriental,-6.13603,23.58979,1295000,4,0,,"-6.13603,23.58979",SimpleMaps worldcities snapshot,https://simplemaps.com/data/world-cities
CD,COD,Congo (Kinshasa),Kisangani,Kisangani,Tshopo,0.51528,25.19099,935977,5,0,,"0.51528,25.19099",SimpleMaps worldcities snapshot,https://simplemaps.com/data/world-cities
CK,COK,Cook Islands,Avarua,Avarua,,-21.2075,-159.77546,5445,1,1,country,"-21.2075,-159.77546",SimpleMaps worldcities snapshot,https://simplemaps.com/data/world-cities
CR,CRI,Costa Rica,San Jose,San Jose,San Jose,10.95192,-85.13572,288054,1,1,country,"10.95192,-85.13572",SimpleMaps worldcities snapshot,https://simplemaps.com/data/world-cities
CR,CRI,Costa Rica,Cartago,Cartago,Cartago,9.86371,-83.9195,221733,2,0,,"9.86371,-83.9195",SimpleMaps worldcities snapshot,https://simplemaps.com/data/world-cities
CR,CRI,Costa Rica,Puerto Limon,Puerto Limon,Limon,10.0022,-83.084,61072,3,0,,"10.0022,-83.0840",SimpleMaps worldcities snapshot,https://simplemaps.com/data/world-cities
CR,CRI,Costa Rica,Liberia,Liberia,Guanacaste,10.63517,-85.43779,45380,4,0,,"10.63517,-85.43779",SimpleMaps worldcities snapshot,https://simplemaps.com/data/world-cities
CR,CRI,Costa Rica,Buenos Aires,Buenos Aires,Puntarenas,9.1497,-83.3334,45000,5,0,,"9.1497,-83.3334",SimpleMaps worldcities snapshot,https://simplemaps.com/data/world-cities
HR,HRV,Croatia,Zagreb,Zagreb,"Zagreb, Grad",45.81444,15.97798,790017,1,1,country,"45.81444,15.97798",SimpleMaps worldcities snapshot,https://simplemaps.com/data/world-cities
HR,HRV,Croatia,Split,Split,Splitsko-Dalmatinska Zupanija,43.50891,16.43915,178102,2,0,,"43.50891,16.43915",SimpleMaps worldcities snapshot,https://simplemaps.com/data/world-cities
HR,HRV,Croatia,Rijeka,Rijeka,Primorsko-Goranska Zupanija,45.32673,14.44241,128624,3,0,,"45.32673,14.44241",SimpleMaps worldcities snapshot,https://simplemaps.com/data/world-cities
HR,HRV,Croatia,Osijek,Osijek,Osjecko-Baranjska Zupanija,45.55066,18.6942,103162,4,0,,"45.55066,18.6942",SimpleMaps worldcities snapshot,https://simplemaps.com/data/world-cities
HR,HRV,Croatia,Zadar,Zadar,Zadarska Zupanija,44.11578,15.22514,75082,5,0,,"44.11578,15.22514",SimpleMaps worldcities snapshot,https://simplemaps.com/data/world-cities
CU,CUB,Cuba,Havana,Havana,La Habana,23.13302,-82.38304,2141652,1,1,country,"23.13302,-82.38304",SimpleMaps worldcities snapshot,https://simplemaps.com/data/world-cities
CU,CUB,Cuba,Santiago de Cuba,Santiago de Cuba,Santiago de Cuba,20.02287,-75.82171,444851,2,0,,"20.02287,-75.82171",SimpleMaps worldcities snapshot,https://simplemaps.com/data/world-cities
CU,CUB,Cuba,Holguin,Holguin,Holguin,20.88722,-76.26306,350191,3,0,,"20.88722,-76.26306",SimpleMaps worldcities snapshot,https://simplemaps.com/data/world-cities
CU,CUB,Cuba,Camaguey,Camaguey,Camaguey,21.38083,-77.91694,321992,4,0,,"21.38083,-77.91694",SimpleMaps worldcities snapshot,https://simplemaps.com/data/world-cities
CU,CUB,Cuba,Bayamo,Bayamo,Granma,20.37368,-76.64272,235107,5,0,,"20.37368,-76.64272",SimpleMaps worldcities snapshot,https://simplemaps.com/data/world-cities
CW,CUW,Curacao,Willemstad,Willemstad,,12.12246,-68.88641,150000,1,1,country,"12.12246,-68.88641",SimpleMaps worldcities snapshot,https://simplemaps.com/data/world-cities
CY,CYP,Cyprus,Nicosia,Nicosia,Lefkosia,35.17284,33.35397,330000,1,1,country,"35.17284,33.35397",SimpleMaps worldcities snapshot,https://simplemaps.com/data/world-cities
CY,CYP,Cyprus,Limassol,Limassol,Lemesos,34.68406,33.03794,235056,2,0,,"34.68406,33.03794",SimpleMaps worldcities snapshot,https://simplemaps.com/data/world-cities
CY,CYP,Cyprus,Larnaca,Larnaca,Larnaka,34.9221,33.62794,48947,3,0,,"34.9221,33.62794",SimpleMaps worldcities snapshot,https://simplemaps.com/data/world-cities
CY,CYP,Cyprus,Famagusta,Famagusta,Ammochostos,35.12489,33.94135,40920,4,0,,"35.12489,33.94135",SimpleMaps worldcities snapshot,https://simplemaps.com/data/world-cities
CY,CYP,Cyprus,Paphos,Paphos,Pafos,34.77679,32.42451,35961,5,0,,"34.77679,32.42451",SimpleMaps worldcities snapshot,https://simplemaps.com/data/world-cities
CZ,CZE,Czechia,Prague,Prague,"Praha, Hlavni Mesto",50.08804,14.42076,1324277,1,1,country,"50.08804,14.42076",SimpleMaps worldcities snapshot,https://simplemaps.com/data/world-cities
CZ,CZE,Czechia,Brno,Brno,Jihomoravsky Kraj,49.19522,16.60796,381346,2,0,,"49.19522,16.60796",SimpleMaps worldcities snapshot,https://simplemaps.com/data/world-cities
CZ,CZE,Czechia,Ostrava,Ostrava,Moravskoslezsky Kraj,49.83465,18.28204,287968,3,0,,"49.83465,18.28204",SimpleMaps worldcities snapshot,https://simplemaps.com/data/world-cities
CZ,CZE,Czechia,Plzen,Plzen,Plzensky Kraj,49.7414,13.3825,174842,4,0,,"49.7414,13.3825",SimpleMaps worldcities snapshot,https://simplemaps.com/data/world-cities
CZ,CZE,Czechia,Liberec,Liberec,Liberecky Kraj,50.76711,15.05619,104802,5,0,,"50.76711,15.05619",SimpleMaps worldcities snapshot,https://simplemaps.com/data/world-cities
CI,CIV,Cote D'Ivoire,Abidjan,Abidjan,Abidjan,5.35444,-4.00167,4980000,1,1,country,"5.35444,-4.00167",SimpleMaps worldcities snapshot,https://simplemaps.com/data/world-cities
CI,CIV,Cote D'Ivoire,Bouake,Bouake,Vallee du Bandama,7.69385,-5.03031,659233,2,0,,"7.69385,-5.03031",SimpleMaps worldcities snapshot,https://simplemaps.com/data/world-cities
CI,CIV,Cote D'Ivoire,Yamoussoukro,Yamoussoukro,Yamoussoukro,6.82055,-5.27674,355573,3,1,country,"6.82055,-5.27674",SimpleMaps worldcities snapshot,https://simplemaps.com/data/world-cities
CI,CIV,Cote D'Ivoire,Korhogo,Korhogo,Savanes,9.45803,-5.62961,286071,4,0,,"9.45803,-5.62961",SimpleMaps worldcities snapshot,https://simplemaps.com/data/world-cities
CI,CIV,Cote D'Ivoire,Daloa,Daloa,Sassandra-Marahoue,6.87735,-6.45022,255168,5,0,,"6.87735,-6.45022",SimpleMaps worldcities snapshot,https://simplemaps.com/data/world-cities
DK,DNK,Denmark,Copenhagen,Copenhagen,Hovedstaden,55.67594,12.56553,1085000,1,1,country,"55.67594,12.56553",SimpleMaps worldcities snapshot,https://simplemaps.com/data/world-cities
DK,DNK,Denmark,Aarhus,Aarhus,Midtjylland,56.1572,10.2107,237551,2,0,,"56.1572,10.2107",SimpleMaps worldcities snapshot,https://simplemaps.com/data/world-cities
DK,DNK,Denmark,Odense,Odense,Syddanmark,55.39594,10.38831,158222,3,0,,"55.39594,10.38831",SimpleMaps worldcities snapshot,https://simplemaps.com/data/world-cities
DK,DNK,Denmark,Aalborg,Aalborg,Nordjylland,57.048,9.9187,122219,4,0,,"57.048,9.9187",SimpleMaps worldcities snapshot,https://simplemaps.com/data/world-cities
DK,DNK,Denmark,Esbjerg,Esbjerg,Syddanmark,55.47028,8.45187,72205,5,0,,"55.47028,8.45187",SimpleMaps worldcities snapshot,https://simplemaps.com/data/world-cities
DJ,DJI,Djibouti,Djibouti,Djibouti,Djibouti,11.58901,43.14503,562000,1,1,country,"11.58901,43.14503",SimpleMaps worldcities snapshot,https://simplemaps.com/data/world-cities
DJ,DJI,Djibouti,Ali Sabieh,Ali Sabieh,Ali Sabieh,11.1558,42.7125,37939,2,0,,"11.1558,42.7125",SimpleMaps worldcities snapshot,https://simplemaps.com/data/world-cities
DJ,DJI,Djibouti,Dikhil,Dikhil,Dikhil,11.10454,42.36971,35000,3,0,,"11.10454,42.36971",SimpleMaps worldcities snapshot,https://simplemaps.com/data/world-cities
DJ,DJI,Djibouti,Obock,Obock,Obock,11.96693,43.28835,21200,4,0,,"11.96693,43.28835",SimpleMaps worldcities snapshot,https://simplemaps.com/data/world-cities
DJ,DJI,Djibouti,Tadjourah,Tadjourah,Tadjourah,11.7833,42.8833,14820,5,0,,"11.7833,42.8833",SimpleMaps worldcities snapshot,https://simplemaps.com/data/world-cities
DM,DMA,Dominica,Roseau,Roseau,Saint George,15.30174,-61.38808,16582,1,1,country,"15.30174,-61.38808",SimpleMaps worldcities snapshot,https://simplemaps.com/data/world-cities
DO,DOM,Dominican Republic,Santo Domingo,Santo Domingo,Ozama,18.47186,-69.89232,2581827,1,1,country,"18.47186,-69.89232",SimpleMaps worldcities snapshot,https://simplemaps.com/data/world-cities
DO,DOM,Dominican Republic,Santiago,Santiago,Cibao Norte,19.5,-70.67,1550753,2,0,,"19.5000,-70.6700",SimpleMaps worldcities snapshot,https://simplemaps.com/data/world-cities
DO,DOM,Dominican Republic,La Vega,La Vega,Cibao Sur,19.22031,-70.53101,220279,3,0,,"19.22031,-70.53101",SimpleMaps worldcities snapshot,https://simplemaps.com/data/world-cities
DO,DOM,Dominican Republic,San Pedro de Macoris,San Pedro de Macoris,Higuamo,18.4539,-69.30864,217899,4,0,,"18.4539,-69.30864",SimpleMaps worldcities snapshot,https://simplemaps.com/data/world-cities
DO,DOM,Dominican Republic,La Romana,La Romana,Yuma,18.42332,-68.96635,208437,5,0,,"18.42332,-68.96635",SimpleMaps worldcities snapshot,https://simplemaps.com/data/world-cities
EC,ECU,Ecuador,Guayaquil,Guayaquil,Guayas,-2.19616,-79.88621,2723665,1,0,,"-2.19616,-79.88621",SimpleMaps worldcities snapshot,https://simplemaps.com/data/world-cities
EC,ECU,Ecuador,Quito,Quito,Pichincha,-0.22985,-78.52495,2011388,2,1,country,"-0.22985,-78.52495",SimpleMaps worldcities snapshot,https://simplemaps.com/data/world-cities
EC,ECU,Ecuador,Cuenca,Cuenca,Azuay,-2.8953,-78.9963,329928,3,0,,"-2.8953,-78.9963",SimpleMaps worldcities snapshot,https://simplemaps.com/data/world-cities
EC,ECU,Ecuador,Santo Domingo de los Colorados,Santo Domingo de los Colorados,Santo Domingo de los Tsachilas,-0.25368,-79.17628,270875,4,0,,"-0.25368,-79.17628",SimpleMaps worldcities snapshot,https://simplemaps.com/data/world-cities
EC,ECU,Ecuador,Machala,Machala,El Oro,-3.25886,-79.95876,231260,5,0,,"-3.25886,-79.95876",SimpleMaps worldcities snapshot,https://simplemaps.com/data/world-cities
EG,EGY,Egypt,Cairo,Cairo,Al Qahirah,30.06263,31.24967,19372000,1,1,country,"30.06263,31.24967",SimpleMaps worldcities snapshot,https://simplemaps.com/data/world-cities
EG,EGY,Egypt,Alexandria,Alexandria,Al Iskandariyah,31.20176,29.91582,4870000,2,0,,"31.20176,29.91582",SimpleMaps worldcities snapshot,https://simplemaps.com/data/world-cities
EG,EGY,Egypt,Giza,Giza,Al Jizah,30.00944,31.20861,3021542,3,0,,"30.00944,31.20861",SimpleMaps worldcities snapshot,https://simplemaps.com/data/world-cities
EG,EGY,Egypt,Shubra al Khaymah,Shubra al Khaymah,Al Qalyubiyah,30.12511,31.25053,1025569,4,0,,"30.12511,31.25053",SimpleMaps worldcities snapshot,https://simplemaps.com/data/world-cities
EG,EGY,Egypt,Halwan,Halwan,Al Qahirah,29.84144,31.30084,619293,5,0,,"29.84144,31.30084",SimpleMaps worldcities snapshot,https://simplemaps.com/data/world-cities
SV,SLV,El Salvador,San Salvador,San Salvador,San Salvador,13.68935,-89.18718,567698,1,1,country,"13.68935,-89.18718",SimpleMaps worldcities snapshot,https://simplemaps.com/data/world-cities
SV,SLV,El Salvador,Usulutan,Usulutan,Usulutan,13.34467,-88.43994,378606,2,0,,"13.34467,-88.43994",SimpleMaps worldcities snapshot,https://simplemaps.com/data/world-cities
SV,SLV,El Salvador,Santa Ana,Santa Ana,Santa Ana,13.98827,-89.55685,270413,3,0,,"13.98827,-89.55685",SimpleMaps worldcities snapshot,https://simplemaps.com/data/world-cities
SV,SLV,El Salvador,San Miguel,San Miguel,San Miguel,13.48261,-88.18211,218410,4,0,,"13.48261,-88.18211",SimpleMaps worldcities snapshot,https://simplemaps.com/data/world-cities
SV,SLV,El Salvador,Sonsonate,Sonsonate,Sonsonate,13.71726,-89.72304,168947,5,0,,"13.71726,-89.72304",SimpleMaps worldcities snapshot,https://simplemaps.com/data/world-cities
GQ,GNQ,Equatorial Guinea,Bata,Bata,Litoral,1.86391,9.76582,250770,1,0,,"1.86391,9.76582",SimpleMaps worldcities snapshot,https://simplemaps.com/data/world-cities
GQ,GNQ,Equatorial Guinea,Malabo,Malabo,Bioko Norte,3.75578,8.78166,187302,2,1,country,"3.75578,8.78166",SimpleMaps worldcities snapshot,https://simplemaps.com/data/world-cities
GQ,GNQ,Equatorial Guinea,Ebebiyin,Ebebiyin,Kie-Ntem,2.15,11.3167,36565,3,0,,"2.1500,11.3167",SimpleMaps worldcities snapshot,https://simplemaps.com/data/world-cities
GQ,GNQ,Equatorial Guinea,Anisoc,Anisoc,Wele-Nzas,1.8656,10.7689,16626,4,0,,"1.8656,10.7689",SimpleMaps worldcities snapshot,https://simplemaps.com/data/world-cities
GQ,GNQ,Equatorial Guinea,Bengonbeyene,Bengonbeyene,Wele-Nzas,1.6931,11.0342,15644,5,0,,"1.6931,11.0342",SimpleMaps worldcities snapshot,https://simplemaps.com/data/world-cities
ER,ERI,Eritrea,Asmara,Asmara,Ma'akel,15.33805,38.93184,963000,1,1,country,"15.33805,38.93184",SimpleMaps worldcities snapshot,https://simplemaps.com/data/world-cities
ER,ERI,Eritrea,Keren,Keren,Anseba,15.77792,38.45107,150000,2,0,,"15.77792,38.45107",SimpleMaps worldcities snapshot,https://simplemaps.com/data/world-cities
ER,ERI,Eritrea,Assab,Assab,Debubawi K'eyih Bahri,13.00917,42.73944,74405,3,0,,"13.00917,42.73944",SimpleMaps worldcities snapshot,https://simplemaps.com/data/world-cities
ER,ERI,Eritrea,Massawa,Massawa,Semenawi K'eyih Bahri,15.60811,39.47455,39758,4,0,,"15.60811,39.47455",SimpleMaps worldcities snapshot,https://simplemaps.com/data/world-cities
ER,ERI,Eritrea,Mendefera,Mendefera,Debub,14.88722,38.81528,28492,5,0,,"14.88722,38.81528",SimpleMaps worldcities snapshot,https://simplemaps.com/data/world-cities
EE,EST,Estonia,Tallinn,Tallinn,Harjumaa,59.43696,24.75353,434562,1,1,country,"59.43696,24.75353",SimpleMaps worldcities snapshot,https://simplemaps.com/data/world-cities
EE,EST,Estonia,Tartu,Tartu,Tartumaa,58.38062,26.72509,93865,2,0,,"58.38062,26.72509",SimpleMaps worldcities snapshot,https://simplemaps.com/data/world-cities
EE,EST,Estonia,Narva,Narva,Ida-Virumaa,59.37722,28.19028,57130,3,0,,"59.37722,28.19028",SimpleMaps worldcities snapshot,https://simplemaps.com/data/world-cities
EE,EST,Estonia,Parnu,Parnu,Parnumaa,58.38588,24.49711,39438,4,0,,"58.38588,24.49711",SimpleMaps worldcities snapshot,https://simplemaps.com/data/world-cities
EE,EST,Estonia,Kohtla-Jarve,Kohtla-Jarve,Ida-Virumaa,59.39861,27.27306,35928,5,0,,"59.39861,27.27306",SimpleMaps worldcities snapshot,https://simplemaps.com/data/world-cities
ET,ETH,Ethiopia,Addis Ababa,Addis Ababa,Adis Abeba,9.02497,38.74689,3041002,1,1,country,"9.02497,38.74689",SimpleMaps worldcities snapshot,https://simplemaps.com/data/world-cities
ET,ETH,Ethiopia,Nazret,Nazret,Oromiya,8.55,39.26667,476892,2,0,,"8.55,39.26667",SimpleMaps worldcities snapshot,https://simplemaps.com/data/world-cities
ET,ETH,Ethiopia,Gonder,Gonder,Amara,12.6,37.46667,323900,3,0,,"12.6,37.46667",SimpleMaps worldcities snapshot,https://simplemaps.com/data/world-cities
ET,ETH,Ethiopia,Mekele,Mekele,Tigray,13.4833,39.4667,323700,4,0,,"13.4833,39.4667",SimpleMaps worldcities snapshot,https://simplemaps.com/data/world-cities
ET,ETH,Ethiopia,Awasa,Awasa,YeDebub Biheroch Bihereseboch na Hizboch,7.05,38.4667,300100,5,0,,"7.0500,38.4667",SimpleMaps worldcities snapshot,https://simplemaps.com/data/world-cities
FK,FLK,Falkland Islands (Islas Malvinas),Stanley,Stanley,,-51.69382,-57.85701,2213,1,1,country,"-51.69382,-57.85701",SimpleMaps worldcities snapshot,https://simplemaps.com/data/world-cities
FO,FRO,Faroe Islands,Torshavn,Torshavn,,62.00973,-6.77164,13326,1,1,country,"62.00973,-6.77164",SimpleMaps worldcities snapshot,https://simplemaps.com/data/world-cities
FO,FRO,Faroe Islands,Klaksvik,Klaksvik,,62.2375,-6.539,4664,2,0,,"62.2375,-6.5390",SimpleMaps worldcities snapshot,https://simplemaps.com/data/world-cities
FO,FRO,Faroe Islands,Eidhi,Eidhi,,62.2995,-7.0924,0,3,0,,"62.2995,-7.0924",SimpleMaps worldcities snapshot,https://simplemaps.com/data/world-cities
FO,FRO,Faroe Islands,Famjin,Famjin,,61.5248,-6.8794,0,4,0,,"61.5248,-6.8794",SimpleMaps worldcities snapshot,https://simplemaps.com/data/world-cities
FO,FRO,Faroe Islands,Fuglafjordhur,Fuglafjordhur,,62.2448,-6.815,0,5,0,,"62.2448,-6.8150",SimpleMaps worldcities snapshot,https://simplemaps.com/data/world-cities
FJ,FJI,Fiji,Suva,Suva,Rewa,-18.13683,178.42531,88271,1,1,country,"-18.13683,178.42531",SimpleMaps worldcities snapshot,https://simplemaps.com/data/world-cities
FJ,FJI,Fiji,Lautoka,Lautoka,Ba,-17.61686,177.45049,52220,2,0,,"-17.61686,177.45049",SimpleMaps worldcities snapshot,https://simplemaps.com/data/world-cities
FJ,FJI,Fiji,Nausori,Nausori,Tailevu,-18.0244,178.5454,47604,3,0,,"-18.0244,178.5454",SimpleMaps worldcities snapshot,https://simplemaps.com/data/world-cities
FJ,FJI,Fiji,Nadi,Nadi,Ba,-17.80309,177.41617,42284,4,0,,"-17.80309,177.41617",SimpleMaps worldcities snapshot,https://simplemaps.com/data/world-cities
FJ,FJI,Fiji,Labasa,Labasa,Macuata,-16.4332,179.36451,27949,5,0,,"-16.4332,179.36451",SimpleMaps worldcities snapshot,https://simplemaps.com/data/world-cities
FI,FIN,Finland,Helsinki,Helsinki,Uusimaa,60.16952,24.93545,642045,1,1,country,"60.16952,24.93545",SimpleMaps worldcities snapshot,https://simplemaps.com/data/world-cities
FI,FIN,Finland,Espoo,Espoo,Uusimaa,60.2052,24.6522,269802,2,0,,"60.2052,24.6522",SimpleMaps worldcities snapshot,https://simplemaps.com/data/world-cities
FI,FIN,Finland,Tampere,Tampere,Pirkanmaa,61.49911,23.78712,225118,3,0,,"61.49911,23.78712",SimpleMaps worldcities snapshot,https://simplemaps.com/data/world-cities
FI,FIN,Finland,Vantaa,Vantaa,Uusimaa,60.29414,25.04099,214605,4,0,,"60.29414,25.04099",SimpleMaps worldcities snapshot,https://simplemaps.com/data/world-cities
FI,FIN,Finland,Oulu,Oulu,Pohjois-Pohjanmaa,65.01236,25.46816,200526,5,0,,"65.01236,25.46816",SimpleMaps worldcities snapshot,https://simplemaps.com/data/world-cities
FR,FRA,France,Paris,Paris,Ile-de-France,48.85341,2.3488,11020000,1,1,country,"48.85341,2.3488",SimpleMaps worldcities snapshot,https://simplemaps.com/data/world-cities
FR,FRA,France,Nice,Nice,Provence-Alpes-Cote d'Azur,43.70313,7.26608,1006402,2,0,,"43.70313,7.26608",SimpleMaps worldcities snapshot,https://simplemaps.com/data/world-cities
FR,FRA,France,Toulouse,Toulouse,Occitanie,43.60426,1.44367,968638,3,0,,"43.60426,1.44367",SimpleMaps worldcities snapshot,https://simplemaps.com/data/world-cities
FR,FRA,France,Marseille,Marseille,Provence-Alpes-Cote d'Azur,43.29695,5.38107,870018,4,0,,"43.29695,5.38107",SimpleMaps worldcities snapshot,https://simplemaps.com/data/world-cities
FR,FRA,France,Rennes,Rennes,Bretagne,48.11109,-1.67431,727357,5,0,,"48.11109,-1.67431",SimpleMaps worldcities snapshot,https://simplemaps.com/data/world-cities
GF,GUF,French Guiana,Cayenne,Cayenne,,4.9381,-52.33455,61550,1,1,country,"4.9381,-52.33455",SimpleMaps worldcities snapshot,https://simplemaps.com/data/world-cities
GF,GUF,French Guiana,Saint-Laurent-du-Maroni,Saint-Laurent-du-Maroni,,5.50153,-54.02916,24287,2,0,,"5.50153,-54.02916",SimpleMaps worldcities snapshot,https://simplemaps.com/data/world-cities
GF,GUF,French Guiana,Kourou,Kourou,,5.16281,-52.64265,24029,3,0,,"5.16281,-52.64265",SimpleMaps worldcities snapshot,https://simplemaps.com/data/world-cities
GF,GUF,French Guiana,Sinnamary,Sinnamary,,5.38,-52.96,3180,4,0,,"5.3800,-52.9600",SimpleMaps worldcities snapshot,https://simplemaps.com/data/world-cities
GF,GUF,French Guiana,Saint-Georges,Saint-Georges,,3.9105,-51.81,2742,5,0,,"3.9105,-51.8100",SimpleMaps worldcities snapshot,https://simplemaps.com/data/world-cities
PF,PYF,French Polynesia,Papeete,Papeete,Iles du Vent,-17.5347,-149.56843,131695,1,1,country,"-17.5347,-149.56843",SimpleMaps worldcities snapshot,https://simplemaps.com/data/world-cities
TF,ATF,French Southern Territories,Port-aux-Francais,Port-aux-Francais,03,-49.34916,70.21937,45,1,1,country,"-49.34916,70.21937",GeoNames cities15000,https://www.geonames.org/
GA,GAB,Gabon,Libreville,Libreville,Estuaire,0.39241,9.45356,797003,1,1,country,"0.39241,9.45356",SimpleMaps worldcities snapshot,https://simplemaps.com/data/world-cities
GA,GAB,Gabon,Port-Gentil,Port-Gentil,Ogooue-Maritime,-0.71933,8.78151,116836,2,0,,"-0.71933,8.78151",SimpleMaps worldcities snapshot,https://simplemaps.com/data/world-cities
GA,GAB,Gabon,Oyem,Oyem,Woleu-Ntem,1.5995,11.57933,60685,3,0,,"1.5995,11.57933",SimpleMaps worldcities snapshot,https://simplemaps.com/data/world-cities
GA,GAB,Gabon,Franceville,Franceville,Haut-Ogooue,-1.63333,13.58357,42967,4,0,,"-1.63333,13.58357",SimpleMaps worldcities snapshot,https://simplemaps.com/data/world-cities
GA,GAB,Gabon,Moanda,Moanda,Haut-Ogooue,-1.56652,13.1987,30151,5,0,,"-1.56652,13.1987",SimpleMaps worldcities snapshot,https://simplemaps.com/data/world-cities
GM,GMB,"Gambia, The",Brikama,Brikama,Western,13.27136,-16.64944,195136,1,0,,"13.27136,-16.64944",SimpleMaps worldcities snapshot,https://simplemaps.com/data/world-cities
GM,GMB,"Gambia, The",Farafenni,Farafenni,North Bank,13.56667,-15.6,36000,2,0,,"13.56667,-15.6",SimpleMaps worldcities snapshot,https://simplemaps.com/data/world-cities
GM,GMB,"Gambia, The",Banjul,Banjul,Banjul,13.45274,-16.57803,31356,3,1,country,"13.45274,-16.57803",SimpleMaps worldcities snapshot,https://simplemaps.com/data/world-cities
GM,GMB,"Gambia, The",Mansa Konko,Mansa Konko,Lower River,13.3773,-15.6786,18672,4,0,,"13.3773,-15.6786",SimpleMaps worldcities snapshot,https://simplemaps.com/data/world-cities
GM,GMB,"Gambia, The",Basse Santa Su,Basse Santa Su,Upper River,13.31,-14.223,14380,5,0,,"13.3100,-14.2230",SimpleMaps worldcities snapshot,https://simplemaps.com/data/world-cities
GE,GEO,Georgia,Tbilisi,Tbilisi,Tbilisi,41.69143,44.83412,1118035,1,1,country,"41.69143,44.83412",SimpleMaps worldcities snapshot,https://simplemaps.com/data/world-cities
GE,GEO,Georgia,Batumi,Batumi,Ajaria,41.64077,41.6306,154600,2,0,,"41.64077,41.6306",SimpleMaps worldcities snapshot,https://simplemaps.com/data/world-cities
GE,GEO,Georgia,Kutaisi,Kutaisi,Imereti,42.26791,42.69459,147900,3,0,,"42.26791,42.69459",SimpleMaps worldcities snapshot,https://simplemaps.com/data/world-cities
GE,GEO,Georgia,Rustavi,Rustavi,Kvemo Kartli,41.56271,44.9787,125103,4,0,,"41.56271,44.9787",SimpleMaps worldcities snapshot,https://simplemaps.com/data/world-cities
GE,GEO,Georgia,Sokhumi,Sokhumi,Abkhazia,43.00697,40.9893,64441,5,0,,"43.00697,40.9893",SimpleMaps worldcities snapshot,https://simplemaps.com/data/world-cities
DE,DEU,Germany,Berlin,Berlin,Berlin,52.52437,13.41053,3644826,1,1,country,"52.52437,13.41053",SimpleMaps worldcities snapshot,https://simplemaps.com/data/world-cities
DE,DEU,Germany,Hamburg,Hamburg,Hamburg,53.55073,9.99302,1841179,2,0,,"53.55073,9.99302",SimpleMaps worldcities snapshot,https://simplemaps.com/data/world-cities
DE,DEU,Germany,Munich,Munich,Bavaria,48.13743,11.57549,1471508,3,0,,"48.13743,11.57549",SimpleMaps worldcities snapshot,https://simplemaps.com/data/world-cities
DE,DEU,Germany,Cologne,Cologne,North Rhine-Westphalia,50.9422,6.9578,1085664,4,0,,"50.9422,6.9578",SimpleMaps worldcities snapshot,https://simplemaps.com/data/world-cities
DE,DEU,Germany,Frankfurt,Frankfurt,Hesse,50.1136,8.6797,753056,5,0,,"50.1136,8.6797",SimpleMaps worldcities snapshot,https://simplemaps.com/data/world-cities
GH,GHA,Ghana,Accra,Accra,Greater Accra,5.55602,-0.1969,2291352,1,1,country,"5.55602,-0.1969",SimpleMaps worldcities snapshot,https://simplemaps.com/data/world-cities
GH,GHA,Ghana,Kumasi,Kumasi,Ashanti,6.68848,-1.62443,2069350,2,0,,"6.68848,-1.62443",SimpleMaps worldcities snapshot,https://simplemaps.com/data/world-cities
GH,GHA,Ghana,Tamale,Tamale,Northern,9.40079,-0.8393,466723,3,0,,"9.40079,-0.8393",SimpleMaps worldcities snapshot,https://simplemaps.com/data/world-cities
GH,GHA,Ghana,Sekondi,Sekondi,Western,4.93422,-1.71454,286248,4,0,,"4.93422,-1.71454",SimpleMaps worldcities snapshot,https://simplemaps.com/data/world-cities
GH,GHA,Ghana,Obuase,Obuase,Ashanti,6.20228,-1.66796,180460,5,0,,"6.20228,-1.66796",SimpleMaps worldcities snapshot,https://simplemaps.com/data/world-cities
GI,GIB,Gibraltar,Gibraltar,Gibraltar,,36.14474,-5.35257,187083,1,1,country,"36.14474,-5.35257",SimpleMaps worldcities snapshot,https://simplemaps.com/data/world-cities
GR,GRC,Greece,Athens,Athens,Attiki,37.98376,23.72784,664046,1,1,country,"37.98376,23.72784",SimpleMaps worldcities snapshot,https://simplemaps.com/data/world-cities
GR,GRC,Greece,Piraeus,Piraeus,Attiki,37.94203,23.64619,466065,2,0,,"37.94203,23.64619",SimpleMaps worldcities snapshot,https://simplemaps.com/data/world-cities
GR,GRC,Greece,Thessaloniki,Thessaloniki,Kentriki Makedonia,40.64072,22.93493,315196,3,0,,"40.64072,22.93493",SimpleMaps worldcities snapshot,https://simplemaps.com/data/world-cities
GR,GRC,Greece,Patra,Patra,Dytiki Ellada,38.2462,21.73508,167446,4,0,,"38.2462,21.73508",SimpleMaps worldcities snapshot,https://simplemaps.com/data/world-cities
GR,GRC,Greece,Larisa,Larisa,Thessalia,39.62847,22.42112,144651,5,0,,"39.62847,22.42112",SimpleMaps worldcities snapshot,https://simplemaps.com/data/world-cities
GL,GRL,Greenland,Nuuk,Nuuk,Sermersooq,64.18347,-51.72157,18326,1,1,country,"64.18347,-51.72157",SimpleMaps worldcities snapshot,https://simplemaps.com/data/world-cities
GL,GRL,Greenland,Sisimiut,Sisimiut,Qeqqata,66.9389,-53.6722,5539,2,0,,"66.9389,-53.6722",SimpleMaps worldcities snapshot,https://simplemaps.com/data/world-cities
GL,GRL,Greenland,Ilulissat,Ilulissat,Qaasuitsup,69.2167,-51.1,4670,3,0,,"69.2167,-51.1000",SimpleMaps worldcities snapshot,https://simplemaps.com/data/world-cities
GL,GRL,Greenland,Aasiaat,Aasiaat,Qaasuitsup,68.7097,-52.8694,3134,4,0,,"68.7097,-52.8694",SimpleMaps worldcities snapshot,https://simplemaps.com/data/world-cities
GL,GRL,Greenland,Qaqortoq,Qaqortoq,Kujalleq,60.7167,-46.0333,3093,5,0,,"60.7167,-46.0333",SimpleMaps worldcities snapshot,https://simplemaps.com/data/world-cities
GD,GRD,Grenada,Saint George's,Saint George's,Saint George,12.0444,-61.7417,4315,1,1,country,"12.0444,-61.7417",SimpleMaps worldcities snapshot,https://simplemaps.com/data/world-cities
GP,GLP,Guadeloupe,Pointe-a-Pitre,Pointe-a-Pitre,,16.23638,-61.53459,145511,1,0,,"16.23638,-61.53459",SimpleMaps worldcities snapshot,https://simplemaps.com/data/world-cities
GP,GLP,Guadeloupe,Lasserre,Lasserre,,16.2304,-61.44,307,2,0,,"16.2304,-61.4400",SimpleMaps worldcities snapshot,https://simplemaps.com/data/world-cities
GP,GLP,Guadeloupe,Basse-Terre,Basse-Terre,,15.99714,-61.73214,0,3,1,country,"15.99714,-61.73214",SimpleMaps worldcities snapshot,https://simplemaps.com/data/world-cities
GU,GUM,Guam,Maina,Maina,,13.4692,144.7332,122411,1,0,,"13.4692,144.7332",SimpleMaps worldcities snapshot,https://simplemaps.com/data/world-cities
GU,GUM,Guam,Hagta,Hagta,,13.47567,144.74886,1051,2,1,country,"13.47567,144.74886",SimpleMaps worldcities snapshot,https://simplemaps.com/data/world-cities
GT,GTM,Guatemala,Guatemala City,Guatemala City,Guatemala,14.64072,-90.51327,2450212,1,1,country,"14.64072,-90.51327",SimpleMaps worldcities snapshot,https://simplemaps.com/data/world-cities
GT,GTM,Guatemala,Quetzaltenango,Quetzaltenango,Quetzaltenango,14.84462,-91.52316,225000,2,0,,"14.84462,-91.52316",SimpleMaps worldcities snapshot,https://simplemaps.com/data/world-cities
GT,GTM,Guatemala,Escuintla,Escuintla,Escuintla,14.30097,-90.78816,172708,3,0,,"14.30097,-90.78816",SimpleMaps worldcities snapshot,https://simplemaps.com/data/world-cities
GT,GTM,Guatemala,San Luis,San Luis,Peten,16.2,-89.44,132470,4,0,,"16.2000,-89.4400",SimpleMaps worldcities snapshot,https://simplemaps.com/data/world-cities
GT,GTM,Guatemala,Jalapa,Jalapa,Jalapa,14.63542,-89.99112,122483,5,0,,"14.63542,-89.99112",SimpleMaps worldcities snapshot,https://simplemaps.com/data/world-cities
GG,GGY,Guernsey,Saint Peter Port,Saint Peter Port,6417228,49.45981,-2.53527,16488,1,1,country,"49.45981,-2.53527",GeoNames cities15000,https://www.geonames.org/
GN,GIN,Guinea,Conakry,Conakry,Conakry,9.53795,-13.67729,1667864,1,1,country,"9.53795,-13.67729",SimpleMaps worldcities snapshot,https://simplemaps.com/data/world-cities
GN,GIN,Guinea,Gueckedou,Gueckedou,N'Zerekore,8.5667,-10.1333,221715,2,0,,"8.5667,-10.1333",SimpleMaps worldcities snapshot,https://simplemaps.com/data/world-cities
GN,GIN,Guinea,N'Zerekore,N'Zerekore,N'Zerekore,7.76,-8.83,168121,3,0,,"7.7600,-8.8300",SimpleMaps worldcities snapshot,https://simplemaps.com/data/world-cities
GN,GIN,Guinea,Kindia,Kindia,Kindia,10.05692,-12.86576,117062,4,0,,"10.05692,-12.86576",SimpleMaps worldcities snapshot,https://simplemaps.com/data/world-cities
GN,GIN,Guinea,Boke,Boke,Boke,10.93217,-14.29055,116270,5,0,,"10.93217,-14.29055",SimpleMaps worldcities snapshot,https://simplemaps.com/data/world-cities
GW,GNB,Guinea-Bissau,Bissau,Bissau,Bissau,11.86357,-15.59767,395954,1,1,country,"11.86357,-15.59767",SimpleMaps worldcities snapshot,https://simplemaps.com/data/world-cities
GW,GNB,Guinea-Bissau,Quinhamel,Quinhamel,Biombo,11.8869,-15.8556,42659,2,0,,"11.8869,-15.8556",SimpleMaps worldcities snapshot,https://simplemaps.com/data/world-cities
GW,GNB,Guinea-Bissau,Catio,Catio,Tombali,11.2833,-15.25,26999,3,0,,"11.2833,-15.2500",SimpleMaps worldcities snapshot,https://simplemaps.com/data/world-cities
GW,GNB,Guinea-Bissau,Bafata,Bafata,Bafata,12.16583,-14.66167,22501,4,0,,"12.16583,-14.66167",SimpleMaps worldcities snapshot,https://simplemaps.com/data/world-cities
GW,GNB,Guinea-Bissau,Gabu,Gabu,Gabu,12.28,-14.22222,14430,5,0,,"12.28,-14.22222",SimpleMaps worldcities snapshot,https://simplemaps.com/data/world-cities
GY,GUY,Guyana,Georgetown,Georgetown,Demerara-Mahaica,6.80448,-58.15527,200500,1,1,country,"6.80448,-58.15527",SimpleMaps worldcities snapshot,https://simplemaps.com/data/world-cities
GY,GUY,Guyana,New Amsterdam,New Amsterdam,East Berbice-Corentyne,6.24924,-57.51578,46874,2,0,,"6.24924,-57.51578",SimpleMaps worldcities snapshot,https://simplemaps.com/data/world-cities
GY,GUY,Guyana,Linden,Linden,Upper Demerara-Berbice,6.00815,-58.30724,29298,3,0,,"6.00815,-58.30724",SimpleMaps worldcities snapshot,https://simplemaps.com/data/world-cities
GY,GUY,Guyana,Anna Regina,Anna Regina,Pomeroon-Supenaam,7.25,-58.5167,12448,4,0,,"7.2500,-58.5167",SimpleMaps worldcities snapshot,https://simplemaps.com/data/world-cities
GY,GUY,Guyana,Princetown,Princetown,East Berbice-Corentyne,5.9,-57.17,12000,5,0,,"5.9000,-57.1700",SimpleMaps worldcities snapshot,https://simplemaps.com/data/world-cities
HT,HTI,Haiti,Port-au-Prince,Port-au-Prince,Ouest,18.54349,-72.33881,987310,1,1,country,"18.54349,-72.33881",SimpleMaps worldcities snapshot,https://simplemaps.com/data/world-cities
HT,HTI,Haiti,Carrefour,Carrefour,Ouest,18.54114,-72.39922,511345,2,0,,"18.54114,-72.39922",SimpleMaps worldcities snapshot,https://simplemaps.com/data/world-cities
HT,HTI,Haiti,Petion-Ville,Petion-Ville,Ouest,18.5098,-72.2856,359615,3,0,,"18.5098,-72.2856",SimpleMaps worldcities snapshot,https://simplemaps.com/data/world-cities
HT,HTI,Haiti,Gonaives,Gonaives,Artibonite,19.44755,-72.68928,324043,4,0,,"19.44755,-72.68928",SimpleMaps worldcities snapshot,https://simplemaps.com/data/world-cities
HT,HTI,Haiti,Delmas,Delmas,Ouest,18.54478,-72.30036,284079,5,0,,"18.54478,-72.30036",SimpleMaps worldcities snapshot,https://simplemaps.com/data/world-cities
HN,HND,Honduras,Comayaguela,Comayaguela,Francisco Morazan,14.0833,-87.2167,1250000,1,0,,"14.0833,-87.2167",SimpleMaps worldcities snapshot,https://simplemaps.com/data/world-cities
HN,HND,Honduras,Tegucigalpa,Tegucigalpa,Francisco Morazan,14.0818,-87.20681,1126534,2,1,country,"14.0818,-87.20681",SimpleMaps worldcities snapshot,https://simplemaps.com/data/world-cities
HN,HND,Honduras,San Pedro Sula,San Pedro Sula,Cortes,15.50585,-88.02588,1073824,3,0,,"15.50585,-88.02588",SimpleMaps worldcities snapshot,https://simplemaps.com/data/world-cities
HN,HND,Honduras,Puerto Cortes,Puerto Cortes,Cortes,15.8833,-87.95,200000,4,0,,"15.8833,-87.9500",SimpleMaps worldcities snapshot,https://simplemaps.com/data/world-cities
HN,HND,Honduras,Tegucigalpita,Tegucigalpita,Atlantida,15.78,-86.7878,196856,5,0,,"15.7800,-86.7878",SimpleMaps worldcities snapshot,https://simplemaps.com/data/world-cities
HK,HKG,Hong Kong,Hong Kong,Hong Kong,,22.27832,114.17469,7347000,1,1,country,"22.27832,114.17469",SimpleMaps worldcities snapshot,https://simplemaps.com/data/world-cities
HU,HUN,Hungary,Budapest,Budapest,Budapest,47.49835,19.04045,1752286,1,1,country,"47.49835,19.04045",SimpleMaps worldcities snapshot,https://simplemaps.com/data/world-cities
HU,HUN,Hungary,Debrecen,Debrecen,Hajdu-Bihar,47.53167,21.62444,201432,2,0,,"47.53167,21.62444",SimpleMaps worldcities snapshot,https://simplemaps.com/data/world-cities
HU,HUN,Hungary,Szeged,Szeged,Csongrad,46.253,20.14824,160766,3,0,,"46.253,20.14824",SimpleMaps worldcities snapshot,https://simplemaps.com/data/world-cities
HU,HUN,Hungary,Miskolc,Miskolc,Borsod-Abauj-Zemplen,48.10327,20.77806,154521,4,0,,"48.10327,20.77806",SimpleMaps worldcities snapshot,https://simplemaps.com/data/world-cities
HU,HUN,Hungary,Pecs,Pecs,Baranya,46.07617,18.22814,142873,5,0,,"46.07617,18.22814",SimpleMaps worldcities snapshot,https://simplemaps.com/data/world-cities
IS,ISL,Iceland,Reykjavik,Reykjavik,,64.13548,-21.89541,128793,1,1,country,"64.13548,-21.89541",SimpleMaps worldcities snapshot,https://simplemaps.com/data/world-cities
IS,ISL,Iceland,Kopavogur,Kopavogur,,64.11234,-21.91298,34140,2,0,,"64.11234,-21.91298",SimpleMaps worldcities snapshot,https://simplemaps.com/data/world-cities
IS,ISL,Iceland,Hafnarfjordhur,Hafnarfjordhur,,64.0671,-21.93774,28703,3,0,,"64.0671,-21.93774",SimpleMaps worldcities snapshot,https://simplemaps.com/data/world-cities
IS,ISL,Iceland,Akureyri,Akureyri,Nordurland Eystra,65.68353,-18.0878,18925,4,0,,"65.68353,-18.0878",SimpleMaps worldcities snapshot,https://simplemaps.com/data/world-cities
IS,ISL,Iceland,Keflavik,Keflavik,Sudurnes,64.00492,-22.56242,16463,5,0,,"64.00492,-22.56242",SimpleMaps worldcities snapshot,https://simplemaps.com/data/world-cities
IN,IND,India,Delhi,Delhi,Delhi,28.65195,77.23149,29617000,1,0,,"28.65195,77.23149",SimpleMaps worldcities snapshot,https://simplemaps.com/data/world-cities
IN,IND,India,Mumbai,Mumbai,Maharashtra,19.07283,72.88261,23355000,2,0,,"19.07283,72.88261",SimpleMaps worldcities snapshot,https://simplemaps.com/data/world-cities
IN,IND,India,Kolkata,Kolkata,West Bengal,22.5411,88.3378,17560000,3,0,,"22.5411,88.3378",SimpleMaps worldcities snapshot,https://simplemaps.com/data/world-cities
IN,IND,India,Bangalore,Bangalore,Karnataka,12.9699,77.598,13707000,4,0,,"12.9699,77.5980",SimpleMaps worldcities snapshot,https://simplemaps.com/data/world-cities
IN,IND,India,Chennai,Chennai,Tamil Nadu,13.08784,80.27847,11324000,5,0,,"13.08784,80.27847",SimpleMaps worldcities snapshot,https://simplemaps.com/data/world-cities
IN,IND,India,New Delhi,New Delhi,Delhi,28.62137,77.2148,142004,245,1,country,"28.62137,77.2148",SimpleMaps worldcities snapshot,https://simplemaps.com/data/world-cities
ID,IDN,Indonesia,Jakarta,Jakarta,Jakarta,-6.21462,106.84513,34540000,1,1,country,"-6.21462,106.84513",SimpleMaps worldcities snapshot,https://simplemaps.com/data/world-cities
ID,IDN,Indonesia,Surabaya,Surabaya,Jawa Timur,-7.24917,112.75083,4975000,2,0,,"-7.24917,112.75083",SimpleMaps worldcities snapshot,https://simplemaps.com/data/world-cities
ID,IDN,Indonesia,Bandung,Bandung,Jawa Barat,-6.92222,107.60694,2394873,3,0,,"-6.92222,107.60694",SimpleMaps worldcities snapshot,https://simplemaps.com/data/world-cities
ID,IDN,Indonesia,Bekasi,Bekasi,Jawa Barat,-6.2349,106.9896,2381053,4,0,,"-6.2349,106.9896",SimpleMaps worldcities snapshot,https://simplemaps.com/data/world-cities
ID,IDN,Indonesia,Tangerang,Tangerang,Jawa Barat,-6.17806,106.63,2237006,5,0,,"-6.17806,106.63",SimpleMaps worldcities snapshot,https://simplemaps.com/data/world-cities
IR,IRN,Iran,Tehran,Tehran,Tehran,35.69439,51.42151,13633000,1,1,country,"35.69439,51.42151",SimpleMaps worldcities snapshot,https://simplemaps.com/data/world-cities
IR,IRN,Iran,Mashhad,Mashhad,Khorasan-e Razavi,36.29807,59.60567,3001184,2,0,,"36.29807,59.60567",SimpleMaps worldcities snapshot,https://simplemaps.com/data/world-cities
IR,IRN,Iran,Esfahan,Esfahan,Esfahan,32.6447,51.6675,1756126,3,0,,"32.6447,51.6675",SimpleMaps worldcities snapshot,https://simplemaps.com/data/world-cities
IR,IRN,Iran,Karaj,Karaj,Alborz,35.83266,50.99155,1592492,4,0,,"35.83266,50.99155",SimpleMaps worldcities snapshot,https://simplemaps.com/data/world-cities
IR,IRN,Iran,Tabriz,Tabriz,Azarbayjan-e Sharqi,38.0833,46.2833,1558693,5,0,,"38.0833,46.2833",SimpleMaps worldcities snapshot,https://simplemaps.com/data/world-cities
IQ,IRQ,Iraq,Baghdad,Baghdad,Baghdad,33.34058,44.40088,5796000,1,1,country,"33.34058,44.40088",SimpleMaps worldcities snapshot,https://simplemaps.com/data/world-cities
IQ,IRQ,Iraq,Mosul,Mosul,Ninawa,36.335,43.11889,1694000,2,0,,"36.335,43.11889",SimpleMaps worldcities snapshot,https://simplemaps.com/data/world-cities
IQ,IRQ,Iraq,Al Basrah,Al Basrah,Al Basrah,30.4889,47.81,1225793,3,0,,"30.4889,47.8100",SimpleMaps worldcities snapshot,https://simplemaps.com/data/world-cities
IQ,IRQ,Iraq,Kirkuk,Kirkuk,Kirkuk,35.46806,44.39222,975000,4,0,,"35.46806,44.39222",SimpleMaps worldcities snapshot,https://simplemaps.com/data/world-cities
IQ,IRQ,Iraq,Erbil,Erbil,Arbil,36.19117,44.00943,852500,5,0,,"36.19117,44.00943",SimpleMaps worldcities snapshot,https://simplemaps.com/data/world-cities
IE,IRL,Ireland,Dublin,Dublin,Dublin,53.33306,-6.24889,1173179,1,1,country,"53.33306,-6.24889",SimpleMaps worldcities snapshot,https://simplemaps.com/data/world-cities
IE,IRL,Ireland,Cork,Cork,Cork,51.89797,-8.47061,208669,2,0,,"51.89797,-8.47061",SimpleMaps worldcities snapshot,https://simplemaps.com/data/world-cities
IE,IRL,Ireland,Galway,Galway,Galway,53.27245,-9.05095,79504,3,0,,"53.27245,-9.05095",SimpleMaps worldcities snapshot,https://simplemaps.com/data/world-cities
IE,IRL,Ireland,Limerick,Limerick,Limerick,52.66472,-8.62306,58319,4,0,,"52.66472,-8.62306",SimpleMaps worldcities snapshot,https://simplemaps.com/data/world-cities
IE,IRL,Ireland,Waterford,Waterford,Waterford,52.25833,-7.11194,48369,5,0,,"52.25833,-7.11194",SimpleMaps worldcities snapshot,https://simplemaps.com/data/world-cities
IM,IMN,Isle Of Man,Douglas,Douglas,,54.15,-4.48333,25000,1,1,country,"54.15,-4.48333",SimpleMaps worldcities snapshot,https://simplemaps.com/data/world-cities
IL,ISR,Israel,Jerusalem,Jerusalem,Southern,31.76904,35.21633,919438,1,1,country,"31.76904,35.21633",SimpleMaps worldcities snapshot,https://simplemaps.com/data/world-cities
IL,ISR,Israel,Tel Aviv-Yafo,Tel Aviv-Yafo,Tel Aviv,32.0833,34.8,451523,2,0,,"32.0833,34.8000",SimpleMaps worldcities snapshot,https://simplemaps.com/data/world-cities
IL,ISR,Israel,Haifa,Haifa,Haifa,32.81303,34.99928,281087,3,0,,"32.81303,34.99928",SimpleMaps worldcities snapshot,https://simplemaps.com/data/world-cities
IL,ISR,Israel,Rishon LeZiyyon,Rishon LeZiyyon,Central,31.95,34.8,249860,4,0,,"31.9500,34.8000",SimpleMaps worldcities snapshot,https://simplemaps.com/data/world-cities
IL,ISR,Israel,Petah Tiqwa,Petah Tiqwa,Central,32.0833,34.8833,236169,5,0,,"32.0833,34.8833",SimpleMaps worldcities snapshot,https://simplemaps.com/data/world-cities
IT,ITA,Italy,Rome,Rome,Lazio,41.89193,12.51133,2872800,1,1,country,"41.89193,12.51133",SimpleMaps worldcities snapshot,https://simplemaps.com/data/world-cities
IT,ITA,Italy,Milan,Milan,Lombardy,45.46427,9.18951,1351562,2,0,,"45.46427,9.18951",SimpleMaps worldcities snapshot,https://simplemaps.com/data/world-cities
IT,ITA,Italy,Naples,Naples,Campania,40.85216,14.26811,972212,3,0,,"40.85216,14.26811",SimpleMaps worldcities snapshot,https://simplemaps.com/data/world-cities
IT,ITA,Italy,Turin,Turin,Piedmont,45.07049,7.68682,870952,4,0,,"45.07049,7.68682",SimpleMaps worldcities snapshot,https://simplemaps.com/data/world-cities
IT,ITA,Italy,Palermo,Palermo,Sicilia,38.1166,13.3636,674435,5,0,,"38.1166,13.3636",SimpleMaps worldcities snapshot,https://simplemaps.com/data/world-cities
JM,JAM,Jamaica,Kingston,Kingston,Kingston,17.99702,-76.79358,580000,1,1,country,"17.99702,-76.79358",SimpleMaps worldcities snapshot,https://simplemaps.com/data/world-cities
JM,JAM,Jamaica,Portmore,Portmore,Saint Catherine,17.97102,-76.88691,170000,2,0,,"17.97102,-76.88691",SimpleMaps worldcities snapshot,https://simplemaps.com/data/world-cities
JM,JAM,Jamaica,May Pen,May Pen,Clarendon,17.96454,-77.24515,135142,3,0,,"17.96454,-77.24515",SimpleMaps worldcities snapshot,https://simplemaps.com/data/world-cities
JM,JAM,Jamaica,Spanish Town,Spanish Town,Saint Catherine,17.99107,-76.95742,131056,4,0,,"17.99107,-76.95742",SimpleMaps worldcities snapshot,https://simplemaps.com/data/world-cities
JM,JAM,Jamaica,Montego Bay,Montego Bay,Saint James,18.47116,-77.91883,110115,5,0,,"18.47116,-77.91883",SimpleMaps worldcities snapshot,https://simplemaps.com/data/world-cities
JP,JPN,Japan,Tokyo,Tokyo,Tokyo,35.6895,139.69171,37977000,1,1,country,"35.6895,139.69171",SimpleMaps worldcities snapshot,https://simplemaps.com/data/world-cities
JP,JPN,Japan,Osaka,Osaka,Osaka,34.6936,135.5019,14977000,2,0,,"34.6936,135.5019",SimpleMaps worldcities snapshot,https://simplemaps.com/data/world-cities
JP,JPN,Japan,Nagoya,Nagoya,Aichi,35.18147,136.90641,9113000,3,0,,"35.18147,136.90641",SimpleMaps worldcities snapshot,https://simplemaps.com/data/world-cities
JP,JPN,Japan,Yokohama,Yokohama,Kanagawa,35.43333,139.65,3748781,4,0,,"35.43333,139.65",SimpleMaps worldcities snapshot,https://simplemaps.com/data/world-cities
JP,JPN,Japan,Fukuoka,Fukuoka,Fukuoka,33.6,130.41667,2128000,5,0,,"33.6,130.41667",SimpleMaps worldcities snapshot,https://simplemaps.com/data/world-cities
JE,JEY,Jersey,Saint Helier,Saint Helier,,49.18804,-2.10491,33522,1,1,country,"49.18804,-2.10491",SimpleMaps worldcities snapshot,https://simplemaps.com/data/world-cities
JO,JOR,Jordan,Amman,Amman,Al 'Asimah,31.95522,35.94503,4007526,1,1,country,"31.95522,35.94503",SimpleMaps worldcities snapshot,https://simplemaps.com/data/world-cities
JO,JOR,Jordan,Irbid,Irbid,Irbid,32.55556,35.85,1088100,2,0,,"32.55556,35.85",SimpleMaps worldcities snapshot,https://simplemaps.com/data/world-cities
JO,JOR,Jordan,Az Zarqa',Az Zarqa',Az Zarqa',32.0833,36.1,481300,3,0,,"32.0833,36.1000",SimpleMaps worldcities snapshot,https://simplemaps.com/data/world-cities
JO,JOR,Jordan,Al `Aqabah,Al `Aqabah,Al 'Aqabah,29.5167,35.0,140000,4,0,,"29.5167,35.0000",SimpleMaps worldcities snapshot,https://simplemaps.com/data/world-cities
JO,JOR,Jordan,As Salt,As Salt,Al Balqa',32.03917,35.72722,88900,5,0,,"32.03917,35.72722",SimpleMaps worldcities snapshot,https://simplemaps.com/data/world-cities
KZ,KAZ,Kazakhstan,Almaty,Almaty,Almaty,43.25249,76.9115,1806833,1,0,,"43.25249,76.9115",SimpleMaps worldcities snapshot,https://simplemaps.com/data/world-cities
KZ,KAZ,Kazakhstan,Nur-Sultan,Nur-Sultan,Astana,51.1333,71.4333,1078362,2,1,country,"51.1333,71.4333",SimpleMaps worldcities snapshot,https://simplemaps.com/data/world-cities
KZ,KAZ,Kazakhstan,Shymkent,Shymkent,Ongtustik Qazaqstan,42.30988,69.60042,1018974,3,0,,"42.30988,69.60042",SimpleMaps worldcities snapshot,https://simplemaps.com/data/world-cities
KZ,KAZ,Kazakhstan,Qaraghandy,Qaraghandy,Qaraghandy,49.8,73.1167,501129,4,0,,"49.8000,73.1167",SimpleMaps worldcities snapshot,https://simplemaps.com/data/world-cities
KZ,KAZ,Kazakhstan,Taraz,Taraz,Zhambyl,42.89799,71.37334,406262,5,0,,"42.89799,71.37334",SimpleMaps worldcities snapshot,https://simplemaps.com/data/world-cities
KE,KEN,Kenya,Nairobi,Nairobi,Nairobi City,-1.28333,36.81667,5545000,1,1,country,"-1.28333,36.81667",SimpleMaps worldcities snapshot,https://simplemaps.com/data/world-cities
KE,KEN,Kenya,Meru,Meru,Meru,0.04626,37.65587,1833000,2,0,,"0.04626,37.65587",SimpleMaps worldcities snapshot,https://simplemaps.com/data/world-cities
KE,KEN,Kenya,Mombasa,Mombasa,Mombasa,-4.05466,39.66359,1200000,3,0,,"-4.05466,39.66359",SimpleMaps worldcities snapshot,https://simplemaps.com/data/world-cities
KE,KEN,Kenya,Kisumu,Kisumu,Kisumu,-0.10221,34.76171,409928,4,0,,"-0.10221,34.76171",SimpleMaps worldcities snapshot,https://simplemaps.com/data/world-cities
KE,KEN,Kenya,Nakuru,Nakuru,Nakuru,-0.30719,36.07225,307990,5,0,,"-0.30719,36.07225",SimpleMaps worldcities snapshot,https://simplemaps.com/data/world-cities
KI,KIR,Kiribati,Tarawa,Tarawa,,1.3278,172.97696,28802,1,1,country,"1.3278,172.97696",SimpleMaps worldcities snapshot,https://simplemaps.com/data/world-cities
KI,KIR,Kiribati,Teaoraereke,Teaoraereke,,1.3333,173.0,5105,2,0,,"1.3333,173.0000",SimpleMaps worldcities snapshot,https://simplemaps.com/data/world-cities
KP,PRK,"Korea, North",Pyongyang,Pyongyang,P'yongyang,39.03385,125.75432,2863000,1,1,country,"39.03385,125.75432",SimpleMaps worldcities snapshot,https://simplemaps.com/data/world-cities
KP,PRK,"Korea, North",Hungnam,Hungnam,Hamnam,39.84198,127.63206,751322,2,0,,"39.84198,127.63206",SimpleMaps worldcities snapshot,https://simplemaps.com/data/world-cities
KP,PRK,"Korea, North",Ch'ongjin,Ch'ongjin,Hambuk,41.8,129.7831,667929,3,0,,"41.8000,129.7831",SimpleMaps worldcities snapshot,https://simplemaps.com/data/world-cities
KP,PRK,"Korea, North",Hamhung,Hamhung,Hamnam,39.91833,127.53639,614198,4,0,,"39.91833,127.53639",SimpleMaps worldcities snapshot,https://simplemaps.com/data/world-cities
KP,PRK,"Korea, North",Sunch'on,Sunch'on,P'yongnam,39.43167,125.93278,437000,5,0,,"39.43167,125.93278",SimpleMaps worldcities snapshot,https://simplemaps.com/data/world-cities
KR,KOR,"Korea, South",Seoul,Seoul,Seoul,37.566,126.9784,21794000,1,1,country,"37.566,126.9784",SimpleMaps worldcities snapshot,https://simplemaps.com/data/world-cities
KR,KOR,"Korea, South",Busan,Busan,Busan,35.10168,129.03004,3440484,2,0,,"35.10168,129.03004",SimpleMaps worldcities snapshot,https://simplemaps.com/data/world-cities
KR,KOR,"Korea, South",Incheon,Incheon,Incheon,37.45646,126.70515,2913024,3,0,,"37.45646,126.70515",SimpleMaps worldcities snapshot,https://simplemaps.com/data/world-cities
KR,KOR,"Korea, South",Daegu,Daegu,Daegu,35.87028,128.59111,2461002,4,0,,"35.87028,128.59111",SimpleMaps worldcities snapshot,https://simplemaps.com/data/world-cities
KR,KOR,"Korea, South",Gwangju,Gwangju,Gwangju,37.41,127.25722,1501557,5,0,,"37.41,127.25722",SimpleMaps worldcities snapshot,https://simplemaps.com/data/world-cities
XK,XKS,Kosovo,Pristina,Pristina,Prishtine,42.67272,21.16688,204725,1,1,country,"42.67272,21.16688",SimpleMaps worldcities snapshot,https://simplemaps.com/data/world-cities
XK,XKS,Kosovo,Prizren,Prizren,Prizren,42.21389,20.73972,186986,2,0,,"42.21389,20.73972",SimpleMaps worldcities snapshot,https://simplemaps.com/data/world-cities
XK,XKS,Kosovo,Ferizaj,Ferizaj,Ferizaj,42.37056,21.15528,108610,3,0,,"42.37056,21.15528",SimpleMaps worldcities snapshot,https://simplemaps.com/data/world-cities
XK,XKS,Kosovo,Peje,Peje,Peje,42.65913,20.28828,96450,4,0,,"42.65913,20.28828",SimpleMaps worldcities snapshot,https://simplemaps.com/data/world-cities
XK,XKS,Kosovo,Gjakove,Gjakove,Gjakove,42.38028,20.43083,94556,5,0,,"42.38028,20.43083",SimpleMaps worldcities snapshot,https://simplemaps.com/data/world-cities
KW,KWT,Kuwait,Kuwait City,Kuwait City,Al 'Asimah,29.367,47.97429,637411,1,1,country,"29.367,47.97429",SimpleMaps worldcities snapshot,https://simplemaps.com/data/world-cities
KW,KWT,Kuwait,Al Jahra',Al Jahra',Al Jahra',29.3375,47.65806,194193,2,0,,"29.3375,47.65806",SimpleMaps worldcities snapshot,https://simplemaps.com/data/world-cities
KW,KWT,Kuwait,Al Ahmadi,Al Ahmadi,Al Ahmadi,29.07694,48.08389,68763,3,0,,"29.07694,48.08389",SimpleMaps worldcities snapshot,https://simplemaps.com/data/world-cities
KG,KGZ,Kyrgyzstan,Bishkek,Bishkek,Bishkek,42.87,74.59,1027200,1,1,country,"42.87,74.59",SimpleMaps worldcities snapshot,https://simplemaps.com/data/world-cities
KG,KGZ,Kyrgyzstan,Osh,Osh,Osh,40.52828,72.7985,251000,2,0,,"40.52828,72.7985",SimpleMaps worldcities snapshot,https://simplemaps.com/data/world-cities
KG,KGZ,Kyrgyzstan,Jalal-Abad,Jalal-Abad,Jalal-Abad,40.9375,72.9861,89004,3,0,,"40.9375,72.9861",SimpleMaps worldcities snapshot,https://simplemaps.com/data/world-cities
KG,KGZ,Kyrgyzstan,Kara-Balta,Kara-Balta,Chuy,42.81423,73.84813,74133,4,0,,"42.81423,73.84813",SimpleMaps worldcities snapshot,https://simplemaps.com/data/world-cities
KG,KGZ,Kyrgyzstan,Karakol,Karakol,Ysyk-Kol,42.49047,78.39197,63377,5,0,,"42.49047,78.39197",SimpleMaps worldcities snapshot,https://simplemaps.com/data/world-cities
LA,LAO,Laos,Vientiane,Vientiane,Viangchan,17.96667,102.6,760000,1,1,country,"17.96667,102.6",SimpleMaps worldcities snapshot,https://simplemaps.com/data/world-cities
LA,LAO,Laos,Savannakhet,Savannakhet,Savannakhet,16.5703,104.7622,124000,2,0,,"16.5703,104.7622",SimpleMaps worldcities snapshot,https://simplemaps.com/data/world-cities
LA,LAO,Laos,Pakxe,Pakxe,Champasak,15.1167,105.7833,119848,3,0,,"15.1167,105.7833",SimpleMaps worldcities snapshot,https://simplemaps.com/data/world-cities
LA,LAO,Laos,Thakhek,Thakhek,Khammouan,17.41027,104.83068,70000,4,0,,"17.41027,104.83068",SimpleMaps worldcities snapshot,https://simplemaps.com/data/world-cities
LA,LAO,Laos,Louangphabang,Louangphabang,Louangphabang,19.8931,102.1381,53792,5,0,,"19.8931,102.1381",SimpleMaps worldcities snapshot,https://simplemaps.com/data/world-cities
LV,LVA,Latvia,Riga,Riga,Riga,56.946,24.10589,698529,1,1,country,"56.946,24.10589",SimpleMaps worldcities snapshot,https://simplemaps.com/data/world-cities
LV,LVA,Latvia,Daugavpils,Daugavpils,Daugavpils Novads,55.88333,26.53333,84592,2,0,,"55.88333,26.53333",SimpleMaps worldcities snapshot,https://simplemaps.com/data/world-cities
LV,LVA,Latvia,Liepaja,Liepaja,Liepaja,56.50474,21.01085,69443,3,0,,"56.50474,21.01085",SimpleMaps worldcities snapshot,https://simplemaps.com/data/world-cities
LV,LVA,Latvia,Jelgava,Jelgava,Jelgavas Novads,56.65,23.71278,55972,4,0,,"56.65,23.71278",SimpleMaps worldcities snapshot,https://simplemaps.com/data/world-cities
LV,LVA,Latvia,Jurmala,Jurmala,Jurmala,56.968,23.77038,48606,5,0,,"56.968,23.77038",SimpleMaps worldcities snapshot,https://simplemaps.com/data/world-cities
LB,LBN,Lebanon,Tripoli,Tripoli,Liban-Nord,34.43352,35.84415,530000,1,0,,"34.43352,35.84415",SimpleMaps worldcities snapshot,https://simplemaps.com/data/world-cities
LB,LBN,Lebanon,Beirut,Beirut,Beyrouth,33.89332,35.50157,361366,2,1,country,"33.89332,35.50157",SimpleMaps worldcities snapshot,https://simplemaps.com/data/world-cities
LB,LBN,Lebanon,Sidon,Sidon,Liban-Sud,33.55751,35.37148,200000,3,0,,"33.55751,35.37148",SimpleMaps worldcities snapshot,https://simplemaps.com/data/world-cities
LB,LBN,Lebanon,Tyre,Tyre,Liban-Sud,33.27333,35.19389,160000,4,0,,"33.27333,35.19389",SimpleMaps worldcities snapshot,https://simplemaps.com/data/world-cities
LB,LBN,Lebanon,Jounie,Jounie,Mont-Liban,33.9697,35.6156,102221,5,0,,"33.9697,35.6156",SimpleMaps worldcities snapshot,https://simplemaps.com/data/world-cities
LS,LSO,Lesotho,Maseru,Maseru,Maseru,-29.31667,27.48333,330790,1,1,country,"-29.31667,27.48333",SimpleMaps worldcities snapshot,https://simplemaps.com/data/world-cities
LS,LSO,Lesotho,Teyateyaneng,Teyateyaneng,Berea,-29.14719,27.74895,75115,2,0,,"-29.14719,27.74895",SimpleMaps worldcities snapshot,https://simplemaps.com/data/world-cities
LS,LSO,Lesotho,Mafeteng,Mafeteng,Mafeteng,-29.82299,27.23744,57059,3,0,,"-29.82299,27.23744",SimpleMaps worldcities snapshot,https://simplemaps.com/data/world-cities
LS,LSO,Lesotho,Leribe,Leribe,Leribe,-28.8734,28.0416,47675,4,0,,"-28.8734,28.0416",SimpleMaps worldcities snapshot,https://simplemaps.com/data/world-cities
LS,LSO,Lesotho,Maputsoe,Maputsoe,Leribe,-28.8866,27.89915,32117,5,0,,"-28.8866,27.89915",SimpleMaps worldcities snapshot,https://simplemaps.com/data/world-cities
LR,LBR,Liberia,Monrovia,Monrovia,Montserrado,6.30054,-10.7969,1021762,1,1,country,"6.30054,-10.7969",SimpleMaps worldcities snapshot,https://simplemaps.com/data/world-cities
LR,LBR,Liberia,Upper Buchanan,Upper Buchanan,Grand Bassa,5.9161,-10.0525,48315,2,0,,"5.9161,-10.0525",SimpleMaps worldcities snapshot,https://simplemaps.com/data/world-cities
LR,LBR,Liberia,Gbarnga,Gbarnga,Bong,6.99543,-9.47122,45835,3,0,,"6.99543,-9.47122",SimpleMaps worldcities snapshot,https://simplemaps.com/data/world-cities
LR,LBR,Liberia,Kakata,Kakata,Margibi,6.53104,-10.35368,33945,4,0,,"6.53104,-10.35368",SimpleMaps worldcities snapshot,https://simplemaps.com/data/world-cities
LR,LBR,Liberia,Harper,Harper,Maryland,4.3782,-7.71081,32661,5,0,,"4.3782,-7.71081",SimpleMaps worldcities snapshot,https://simplemaps.com/data/world-cities
LY,LBY,Libya,Tripoli,Tripoli,Tarabulus,32.88743,13.18733,1126000,1,1,country,"32.88743,13.18733",SimpleMaps worldcities snapshot,https://simplemaps.com/data/world-cities
LY,LBY,Libya,Benghazi,Benghazi,Banghazi,32.11486,20.06859,631555,2,0,,"32.11486,20.06859",SimpleMaps worldcities snapshot,https://simplemaps.com/data/world-cities
LY,LBY,Libya,Misratah,Misratah,Misratah,32.3778,15.0901,259056,3,0,,"32.3778,15.0901",SimpleMaps worldcities snapshot,https://simplemaps.com/data/world-cities
LY,LBY,Libya,Al Bayda',Al Bayda',Al Jabal al Akhdar,32.76272,21.75506,250000,4,0,,"32.76272,21.75506",SimpleMaps worldcities snapshot,https://simplemaps.com/data/world-cities
LY,LBY,Libya,Az Zawiyah,Az Zawiyah,Az Zawiyah,32.7571,12.72764,200000,5,0,,"32.7571,12.72764",SimpleMaps worldcities snapshot,https://simplemaps.com/data/world-cities
LI,LIE,Liechtenstein,Vaduz,Vaduz,Vaduz,47.14151,9.52154,36281,1,1,country,"47.14151,9.52154",SimpleMaps worldcities snapshot,https://simplemaps.com/data/world-cities
LI,LIE,Liechtenstein,Schaan,Schaan,Schaan,47.1667,9.5167,5959,2,0,,"47.1667,9.5167",SimpleMaps worldcities snapshot,https://simplemaps.com/data/world-cities
LI,LIE,Liechtenstein,Mauren,Mauren,Mauren,47.2197,9.5428,4268,3,0,,"47.2197,9.5428",SimpleMaps worldcities snapshot,https://simplemaps.com/data/world-cities
LI,LIE,Liechtenstein,Balzers,Balzers,Balzers,47.0667,9.5025,0,4,0,,"47.0667,9.5025",SimpleMaps worldcities snapshot,https://simplemaps.com/data/world-cities
LI,LIE,Liechtenstein,Eschen,Eschen,Eschen,47.2109,9.5216,0,5,0,,"47.2109,9.5216",SimpleMaps worldcities snapshot,https://simplemaps.com/data/world-cities
LT,LTU,Lithuania,Vilnius,Vilnius,Vilniaus Miestas,54.68916,25.2798,574147,1,1,country,"54.68916,25.2798",SimpleMaps worldcities snapshot,https://simplemaps.com/data/world-cities
LT,LTU,Lithuania,Kaunas,Kaunas,Kauno Miestas,54.90156,23.90909,288466,2,0,,"54.90156,23.90909",SimpleMaps worldcities snapshot,https://simplemaps.com/data/world-cities
LT,LTU,Lithuania,Klaipeda,Klaipeda,Klaipedos Miestas,55.7068,21.13912,164310,3,0,,"55.7068,21.13912",SimpleMaps worldcities snapshot,https://simplemaps.com/data/world-cities
LT,LTU,Lithuania,Siauliai,Siauliai,Siauliu Miestas,55.93333,23.31667,107086,4,0,,"55.93333,23.31667",SimpleMaps worldcities snapshot,https://simplemaps.com/data/world-cities
LT,LTU,Lithuania,Panevezys,Panevezys,Panevezio Miestas,55.73186,24.35983,91054,5,0,,"55.73186,24.35983",SimpleMaps worldcities snapshot,https://simplemaps.com/data/world-cities
LU,LUX,Luxembourg,Luxembourg,Luxembourg,Luxembourg,49.60982,6.13268,122273,1,1,country,"49.60982,6.13268",SimpleMaps worldcities snapshot,https://simplemaps.com/data/world-cities
LU,LUX,Luxembourg,Esch-sur-Alzette,Esch-sur-Alzette,Esch-sur-Alzette,49.49583,5.98056,36218,2,0,,"49.49583,5.98056",SimpleMaps worldcities snapshot,https://simplemaps.com/data/world-cities
LU,LUX,Luxembourg,Diekirch,Diekirch,Diekirch,49.8678,6.1558,6242,3,0,,"49.8678,6.1558",SimpleMaps worldcities snapshot,https://simplemaps.com/data/world-cities
LU,LUX,Luxembourg,Echternach,Echternach,Echternach,49.8117,6.4217,5617,4,0,,"49.8117,6.4217",SimpleMaps worldcities snapshot,https://simplemaps.com/data/world-cities
LU,LUX,Luxembourg,Rumelange,Rumelange,Esch-sur-Alzette,49.4597,6.0306,5604,5,0,,"49.4597,6.0306",SimpleMaps worldcities snapshot,https://simplemaps.com/data/world-cities
MO,MAC,Macau,Macau,Macau,,22.20056,113.54611,568700,1,0,,"22.20056,113.54611",SimpleMaps worldcities snapshot,https://simplemaps.com/data/world-cities
MK,MKD,Macedonia,Skopje,Skopje,Skopje,41.99646,21.43141,640000,1,1,country,"41.99646,21.43141",SimpleMaps worldcities snapshot,https://simplemaps.com/data/world-cities
MK,MKD,Macedonia,Tetovo,Tetovo,Tetovo,42.00989,20.97138,142030,2,0,,"42.00989,20.97138",SimpleMaps worldcities snapshot,https://simplemaps.com/data/world-cities
MK,MKD,Macedonia,Bitola,Bitola,Bitola,41.03226,21.33553,84002,3,0,,"41.03226,21.33553",SimpleMaps worldcities snapshot,https://simplemaps.com/data/world-cities
MK,MKD,Macedonia,Kumanovo,Kumanovo,Kumanovo,42.13279,21.71585,70842,4,0,,"42.13279,21.71585",SimpleMaps worldcities snapshot,https://simplemaps.com/data/world-cities
MK,MKD,Macedonia,Prilep,Prilep,Prilep,41.34558,21.5537,66817,5,0,,"41.34558,21.5537",SimpleMaps worldcities snapshot,https://simplemaps.com/data/world-cities
MG,MDG,Madagascar,Antananarivo,Antananarivo,Antananarivo,-18.91368,47.53613,2610000,1,1,country,"-18.91368,47.53613",SimpleMaps worldcities snapshot,https://simplemaps.com/data/world-cities
MG,MDG,Madagascar,Antsirabe,Antsirabe,Antananarivo,-19.86586,47.03333,257163,2,0,,"-19.86586,47.03333",SimpleMaps worldcities snapshot,https://simplemaps.com/data/world-cities
MG,MDG,Madagascar,Toamasina,Toamasina,Toamasina,-18.1492,49.40234,225116,3,0,,"-18.1492,49.40234",SimpleMaps worldcities snapshot,https://simplemaps.com/data/world-cities
MG,MDG,Madagascar,Fianarantsoa,Fianarantsoa,Fianarantsoa,-21.45267,47.08569,184184,4,0,,"-21.45267,47.08569",SimpleMaps worldcities snapshot,https://simplemaps.com/data/world-cities
MG,MDG,Madagascar,Mahajanga,Mahajanga,Mahajanga,-15.71667,46.31667,154657,5,0,,"-15.71667,46.31667",SimpleMaps worldcities snapshot,https://simplemaps.com/data/world-cities
MW,MWI,Malawi,Blantyre,Blantyre,Blantyre,-15.78499,35.00854,1895973,1,0,,"-15.78499,35.00854",SimpleMaps worldcities snapshot,https://simplemaps.com/data/world-cities
MW,MWI,Malawi,Lilongwe,Lilongwe,Lilongwe,-13.96692,33.78725,781538,2,1,country,"-13.96692,33.78725",SimpleMaps worldcities snapshot,https://simplemaps.com/data/world-cities
MW,MWI,Malawi,Mzuzu,Mzuzu,Mzimba,-11.46556,34.02071,150100,3,0,,"-11.46556,34.02071",SimpleMaps worldcities snapshot,https://simplemaps.com/data/world-cities
MW,MWI,Malawi,Zomba,Zomba,Zomba,-15.38596,35.3188,101140,4,0,,"-15.38596,35.3188",SimpleMaps worldcities snapshot,https://simplemaps.com/data/world-cities
MW,MWI,Malawi,Salima,Salima,Salima,-13.7804,34.4587,71181,5,0,,"-13.7804,34.4587",SimpleMaps worldcities snapshot,https://simplemaps.com/data/world-cities
MY,MYS,Malaysia,Kuala Lumpur,Kuala Lumpur,Kuala Lumpur,3.1412,101.68653,8285000,1,1,country,"3.1412,101.68653",SimpleMaps worldcities snapshot,https://simplemaps.com/data/world-cities
MY,MYS,Malaysia,Klang,Klang,Selangor,3.03667,101.44333,878000,2,0,,"3.03667,101.44333",SimpleMaps worldcities snapshot,https://simplemaps.com/data/world-cities
MY,MYS,Malaysia,Ipoh,Ipoh,Perak,4.5841,101.0829,866772,3,0,,"4.5841,101.0829",SimpleMaps worldcities snapshot,https://simplemaps.com/data/world-cities
MY,MYS,Malaysia,Butterworth,Butterworth,Pulau Pinang,5.3991,100.36382,821652,4,0,,"5.3991,100.36382",SimpleMaps worldcities snapshot,https://simplemaps.com/data/world-cities
MY,MYS,Malaysia,George Town,George Town,Pulau Pinang,5.41123,100.33543,708127,5,0,,"5.41123,100.33543",SimpleMaps worldcities snapshot,https://simplemaps.com/data/world-cities
MV,MDV,Maldives,Male,Male,Maale,4.17521,73.50916,133019,1,1,country,"4.17521,73.50916",SimpleMaps worldcities snapshot,https://simplemaps.com/data/world-cities
MV,MDV,Maldives,Dhihdhoo,Dhihdhoo,Thiladhunmathee Uthuruburi,6.8874,73.114,0,2,0,,"6.8874,73.1140",SimpleMaps worldcities snapshot,https://simplemaps.com/data/world-cities
MV,MDV,Maldives,Eydhafushi,Eydhafushi,Maalhosmadulu Dhekunuburi,5.1038,73.0699,0,3,0,,"5.1038,73.0699",SimpleMaps worldcities snapshot,https://simplemaps.com/data/world-cities
MV,MDV,Maldives,Felidhoo,Felidhoo,Felidhu Atholhu,3.4718,73.547,0,4,0,,"3.4718,73.5470",SimpleMaps worldcities snapshot,https://simplemaps.com/data/world-cities
MV,MDV,Maldives,Foammulah,Foammulah,Fuvammulah,-0.3,73.4256,0,5,0,,"-0.3000,73.4256",SimpleMaps worldcities snapshot,https://simplemaps.com/data/world-cities
ML,MLI,Mali,Bamako,Bamako,Bamako,12.60915,-7.97522,2009109,1,1,country,"12.60915,-7.97522",SimpleMaps worldcities snapshot,https://simplemaps.com/data/world-cities
ML,MLI,Mali,Sikasso,Sikasso,Sikasso,11.31755,-5.66654,213977,2,0,,"11.31755,-5.66654",SimpleMaps worldcities snapshot,https://simplemaps.com/data/world-cities
ML,MLI,Mali,Segou,Segou,Segou,13.44032,-6.25947,133501,3,0,,"13.44032,-6.25947",SimpleMaps worldcities snapshot,https://simplemaps.com/data/world-cities
ML,MLI,Mali,Gao,Gao,Gao,16.27167,-0.04472,116967,4,0,,"16.27167,-0.04472",SimpleMaps worldcities snapshot,https://simplemaps.com/data/world-cities
ML,MLI,Mali,Mopti,Mopti,Mopti,14.4843,-4.18296,108456,5,0,,"14.4843,-4.18296",SimpleMaps worldcities snapshot,https://simplemaps.com/data/world-cities
MT,MLT,Malta,Birkirkara,Birkirkara,Birkirkara,35.89706,14.46115,24356,1,0,,"35.89706,14.46115",SimpleMaps worldcities snapshot,https://simplemaps.com/data/world-cities
MT,MLT,Malta,Qormi,Qormi,Qormi,35.87601,14.472,16779,2,0,,"35.87601,14.472",SimpleMaps worldcities snapshot,https://simplemaps.com/data/world-cities
MT,MLT,Malta,Valletta,Valletta,Valletta,35.89968,14.5148,6444,3,1,country,"35.89968,14.5148",SimpleMaps worldcities snapshot,https://simplemaps.com/data/world-cities
MT,MLT,Malta,Attard,Attard,Attard,35.8897,14.4425,0,4,0,,"35.8897,14.4425",SimpleMaps worldcities snapshot,https://simplemaps.com/data/world-cities
MT,MLT,Malta,Balzan,Balzan,Balzan,35.9003,14.455,0,5,0,,"35.9003,14.4550",SimpleMaps worldcities snapshot,https://simplemaps.com/data/world-cities
MH,MHL,Marshall Islands,Majuro,Majuro,Majuro,7.08971,171.38027,25400,1,1,country,"7.08971,171.38027",SimpleMaps worldcities snapshot,https://simplemaps.com/data/world-cities
MQ,MTQ,Martinique,Fort-de-France,Fort-de-France,,14.60365,-61.07418,253995,1,1,country,"14.60365,-61.07418",SimpleMaps worldcities snapshot,https://simplemaps.com/data/world-cities
MR,MRT,Mauritania,Nouakchott,Nouakchott,,18.08581,-15.9785,1077169,1,1,country,"18.08581,-15.9785",SimpleMaps worldcities snapshot,https://simplemaps.com/data/world-cities
MR,MRT,Mauritania,Nema,Nema,Hodh ech Chargui,16.61702,-7.25649,200000,2,0,,"16.61702,-7.25649",SimpleMaps worldcities snapshot,https://simplemaps.com/data/world-cities
MR,MRT,Mauritania,Nouadhibou,Nouadhibou,Dakhlet Nouadhibou,20.94188,-17.03842,118000,3,0,,"20.94188,-17.03842",SimpleMaps worldcities snapshot,https://simplemaps.com/data/world-cities
MR,MRT,Mauritania,Kiffa,Kiffa,Assaba,16.62073,-11.40208,110714,4,0,,"16.62073,-11.40208",SimpleMaps worldcities snapshot,https://simplemaps.com/data/world-cities
MR,MRT,Mauritania,Zouerate,Zouerate,Tiris Zemmour,22.7344,-12.4725,56345,5,0,,"22.7344,-12.4725",SimpleMaps worldcities snapshot,https://simplemaps.com/data/world-cities
MU,MUS,Mauritius,Curepipe,Curepipe,Plaines Wilhems,-20.31628,57.52594,299975,1,0,,"-20.31628,57.52594",SimpleMaps worldcities snapshot,https://simplemaps.com/data/world-cities
MU,MUS,Mauritius,Port Louis,Port Louis,Port Louis,-20.16194,57.49889,149194,2,1,country,"-20.16194,57.49889",SimpleMaps worldcities snapshot,https://simplemaps.com/data/world-cities
MU,MUS,Mauritius,Quartier Militaire,Quartier Militaire,Moka,-20.25,57.55,22745,3,0,,"-20.2500,57.5500",SimpleMaps worldcities snapshot,https://simplemaps.com/data/world-cities
MU,MUS,Mauritius,Centre de Flacq,Centre de Flacq,Flacq,-20.18972,57.71444,15791,4,0,,"-20.18972,57.71444",SimpleMaps worldcities snapshot,https://simplemaps.com/data/world-cities
MU,MUS,Mauritius,Port Mathurin,Port Mathurin,Rodrigues,-19.6833,63.4211,5929,5,0,,"-19.6833,63.4211",SimpleMaps worldcities snapshot,https://simplemaps.com/data/world-cities
YT,MYT,Mayotte,Mamoudzou,Mamoudzou,,-12.78234,45.22878,32057,1,1,country,"-12.78234,45.22878",SimpleMaps worldcities snapshot,https://simplemaps.com/data/world-cities
MX,MEX,Mexico,Mexico City,Mexico City,Ciudad de Mexico,19.42847,-99.12766,20996000,1,1,country,"19.42847,-99.12766",SimpleMaps worldcities snapshot,https://simplemaps.com/data/world-cities
MX,MEX,Mexico,Guadalajara,Guadalajara,Jalisco,20.67738,-103.34749,5253000,2,0,,"20.67738,-103.34749",SimpleMaps worldcities snapshot,https://simplemaps.com/data/world-cities
MX,MEX,Mexico,Monterrey,Monterrey,Nuevo Leon,25.68435,-100.31721,4295000,3,0,,"25.68435,-100.31721",SimpleMaps worldcities snapshot,https://simplemaps.com/data/world-cities
MX,MEX,Mexico,Tijuana,Tijuana,Baja California,32.5027,-117.00371,2384609,4,0,,"32.5027,-117.00371",SimpleMaps worldcities snapshot,https://simplemaps.com/data/world-cities
MX,MEX,Mexico,Ecatepec,Ecatepec,Mexico,19.6097,-99.06,1656107,5,0,,"19.6097,-99.0600",SimpleMaps worldcities snapshot,https://simplemaps.com/data/world-cities
FM,FSM,"Micronesia, Federated States Of",Palikir,Palikir,Pohnpei,6.92477,158.16109,6227,1,1,country,"6.92477,158.16109",SimpleMaps worldcities snapshot,https://simplemaps.com/data/world-cities
FM,FSM,"Micronesia, Federated States Of",Colonia,Colonia,Yap,9.5144,138.1292,0,2,0,,"9.5144,138.1292",SimpleMaps worldcities snapshot,https://simplemaps.com/data/world-cities
FM,FSM,"Micronesia, Federated States Of",Kolonia,Kolonia,Pohnpei,6.9639,158.2083,0,3,0,,"6.9639,158.2083",SimpleMaps worldcities snapshot,https://simplemaps.com/data/world-cities
FM,FSM,"Micronesia, Federated States Of",Tofol,Tofol,Kosrae,5.3261,163.0083,0,4,0,,"5.3261,163.0083",SimpleMaps worldcities snapshot,https://simplemaps.com/data/world-cities
